景点名,等级,地址,介绍,热度,价格,月销量,经度,纬度
稻城亚丁,4A,四川省甘孜藏族自治州稻城县,从你的全世界路过,1.0,280,37147,100.26589077053336,28.76649664059105
九华山,5A,安徽省池州市九华山镇二一九省道,神奇灵秀地，大愿九华山,1.0,189,33957,117.78681556760553,30.5959007888894
都江堰,5A,四川省成都市都江堰市,感受都江堰水利工程的古人智慧,1.0,87,29315,103.63734201320867,31.039123659727668
故宫,5A,北京市东城区景山前街4号,东方宫殿建筑代表，世界宫殿建筑典范,1.0,20,27030,116.40332233225863,39.92867787291636
庐山风景名胜区,5A,江西省九江市庐山区,匡庐奇秀甲天下,1.0,105,25048,116.00973576012935,29.66658568601871
九华山地藏王圣像景区,,安徽省池州市九华山风景区柯村新区,安忍不动犹如大地，静虑深密犹如秘藏,0.0,150,21588,117.76882575381849,30.452343045419894
秦始皇陵博物院（兵马俑）,5A,陕西省西安市临潼县秦始皇陵东1.5公里处,世界第八大奇迹,0.8800000000000001,149,21249,109.40617063756603,34.39081105427517
峨眉山,5A,四川省乐山峨眉山市,云上金顶，天下峨眉,1.0,90,17453,103.40091230855559,29.50700404085018
上海迪士尼乐园,,上海市浦东新区川沙新镇上海迪士尼度假区内,点亮心中奇梦,0.0,189,12607,121.69920088312556,31.188112047267627
三峡大坝旅游区,5A,湖北省宜昌市夷陵区三斗坪镇,高峡出平湖,1.0,68,12400,111.07981476141462,30.839321890871332
武汉海昌极地海洋世界,,湖北省武汉市东西湖区金银潭大道96号,极地海洋主题公园，不一样的极地世界,0.0,95,12113,114.28330779124663,30.670049584757095
青城山,5A,四川省成都市都江堰市青城山路,青城山下白素贞，洞中千年修此身,0.96,87,12033,103.56020918757677,30.899356662130483
碧峰峡,4A,四川省雅安市雨城区下里乡碧峰镇,听浪漫传说，呼吸大自然新鲜空气,0.9,12.6,9462,103.02196376321048,30.1101860305358
长沙海底世界,4A,湖南省长沙市三一大道浏阳河东金鹰文化城内,赏难得一见的大规模完整的软珊瑚族群,0.7,1.7,8946,113.0602154612917,28.239569655530875
玉屏索道,,安徽省黄山市黄山区黄山景区,沿途欣赏秀丽山色,0.0,169,7039,118.18013825696276,30.070606593610414
太平索道,,安徽省黄山市黄山景区,上揽云天雾海，下拾阡陌平川,0.0,169,6396,118.18013825696276,30.070606593610414
成都熊猫基地,4A,四川省成都市成华区外北熊猫大道1375号,无关黑与白， 不分胖与瘦， 可爱而又温暖,0.8,54,6302,104.15237325412764,30.738574647542777
东方明珠,5A,上海市浦东新区世纪大道1号,感受云端漫步，品味老上海风情,0.76,215,5659,121.50575081580605,31.24478016101388
张掖七彩丹霞旅游景区,4A,甘肃省张掖市临泽县倪家营南台子村,来中国秀美的七大丹霞赏彩色丹霞,0.0,72,5310,100.13309756166977,39.0374590341114
大连森林动物园,4A,辽宁省大连市西岗区南石道街迎春路60号,与动物嬉戏，共享和谐人生,0.72,115,5299,121.6266747567768,38.89401783183473
锦绣中华民俗村,5A,广东省深圳市南山区深南大道9003号华侨城锦绣中华苏州街（近华侨城地铁站D出口）,深圳小人国——实景微缩景区候选世界纪录,0.74,45,5093,113.9941504606068,22.538923878845075
上海野生动物园,5A,上海市浦东新区南汇县三灶镇南六公路178号,与野生动物近距离的“亲密接触”,0.72,118.1,4844,121.7699041751199,31.051897976820506
颐和园,5A,北京市海淀区新建宫门路19号,保存完整的一座皇家行宫御苑,0.82,65,4328,116.28929029626218,39.997101431716125
涠洲岛,4A,广西省北海市南北部湾海域,秀美的火山岛，感受渔家风情,0.9199999999999999,60,4276,109.15016692984743,21.50028099354522
乐山大佛,5A,四川省乐山市市中区凌云路2435号簏子街,摩崖石刻造像,0.82,89,4176,103.7834542613411,29.569106428476072
青岛海昌极地海洋世界,4A,山东省青岛市崂山区东海东路60号,私会极地来的珍稀动物,0.76,97,4144,120.45057323636595,36.07629615888211
天涯海角,4A,海南省三亚市沿海滨西行26公里天涯镇马岭山麓,天之涯海之角，爱就陪Ta到天涯海角,0.9,75,4050,109.33386131572547,18.31378618362579
韶关丹霞山,5A,广东省韶关市浈江区丹霞山风景名胜区,丹霞地貌命名地,1.0,140,4050,113.74453613473234,25.0400872328024
北京欢乐谷,4A,北京市朝阳区东四环小武基北路,七大主题园区带你畅享北京欢乐谷,0.72,99,4049,116.49895816644518,39.889191934040895
乐华城•乐华欢乐世界,,陕西省西咸新区泾河新城沣泾大道,过山车主题公园,0.0,88,3802,109.50378929072508,35.860026261322766
天门山国家森林公园,5A,湖南省张家界市永定区天门山索道站,穿越云霄的旅行,0.82,232,3726,110.48961960975178,29.117749903283038
南山文化旅游区,5A,海南省三亚市崖城镇南山村,108米的海上三面观音，三亚不容错过之旅,0.76,115,3697,109.19019829703815,18.32343339552453
黄山风景区,5A,安徽省黄山市黄山区黄山风景区,五岳归来不看山，黄山归来不看岳,1.0,75,3612,118.17345524215514,30.060365124697995
上海欢乐谷,4A,上海市松江区佘山镇林湖路888号,游乐项目惊险刺激，特色表演异彩纷呈,0.72,120,3608,121.22625527782287,31.09997841821621
嵩山少林寺,5A,河南省郑州登封市西北13公里嵩山南麓,登顶中岳嵩山，一览天下胜景,0.86,70,3432,113.01482372910452,34.52369571465558
香港迪士尼乐园,,香港特别行政区离岛区大屿山神奇道香港迪士尼乐园,香港必游乐园，亲子游必选,1.0,435,3428,114.05573173411017,22.3108835078335
长隆野生动物世界,5A,广东省广州市番禺区迎宾路长隆旅游度假村旁,熊猫三胞胎，与您共享欢乐时光,0.74,3.8,3426,113.32162431662682,23.04202963164474
八达岭长城,5A,北京市延庆县军都山关沟古道北口216省道附近,不到长城非好汉,0.82,40,3417,116.0452871144021,40.333580966559914
长恨歌,,陕西省西安市临潼区华清路38号华清池,中国首部大型实景历史舞剧,0.0,186,3405,109.21924373608019,34.3697812400269
蜈支洲岛,5A,海南省三亚市林旺镇海棠湾蜈支洲岛,私人订制主取景地,0.86,150,3324,109.73297809435464,18.278478916907762
鼓浪屿,5A,福建省厦门市思明区鼓浪屿,琴之岛，乐之屿,0.9800000000000001,29,3204,118.07367153984569,24.452339588488634
亚龙湾热带天堂森林公园,4A,海南省三亚市吉阳镇亚龙湾国际旅游度假区,非诚勿扰2拍摄地,0.8,135,3098,109.63149263755125,18.255503658688106
长隆水上乐园,5A,广东省广州市番禺区迎宾路长隆旅游度假区内,全球必去的水上乐园,0.72,91.01,3065,113.34078676943722,23.011491468631867
陕西历史博物馆,4A,陕西省西安市雁塔区小寨东路91号,在这里，见证中华文明,0.9199999999999999,28.1,3045,108.96188798661125,34.22923333491989
宋城千古情,,浙江省杭州市西湖区之江路148号,杭州宋城的灵魂，世界三大名秀,0.0,290,3035,120.10663333924954,30.176645379856154
茶卡盐湖,4A,青海省海西州鸟兰县茶卡镇盐湖路,"天然结晶盐，晶大质纯,盐味醇香",0.8400000000000001,68,3008,99.08550969631395,36.79732357401828
鼓浪屿往返轮渡,,福建省厦门市思明区鹭江道（近中山路）,鼓浪屿上岛必备神器,0.0,41,2877,118.07951249294769,24.46216810242985
世界之窗,5A,广东省深圳市南山区深南大道9037号,全球微缩景点，精彩演绎、娱乐项目应有尽有,0.0,70,2865,113.98046737137142,22.542337416806653
宏村,5A,安徽省黄山市黟县宏村镇宏村里,炊烟袅袅升起，行走在皖南小山村,0.78,52,2864,117.98859334302392,29.995008819144832
拙政园,5A,江苏省苏州市平江区东北街178号,庭院错落，花木为胜,1.0,88.1,2792,120.63704615400978,31.3294605583393
张家界大峡谷,4A,湖南省张家界市慈利县三官寺,飞瀑神泉比比皆是，宛如来到世外桃源,0.7,158,2774,110.66347268777109,29.42966364210941
横店影视城,5A,浙江省金华东阳市横店镇横店影视城,东方好莱坞，江南第一镇,1.0,49,2772,120.29416554977304,29.161631592416718
张家界,,湖南省张家界市,湘鄂渝黔革命根据地的发源地和中心区域,0.0,95,2754,110.4816201569677,29.124889353219793
南京总统府,4A,江苏省南京市玄武区长江路292号,了解中国近代史，切记勿忘国耻,0.8,36.7,2732,118.80391735769962,32.049004107544604
布达拉宫,5A,西藏自治区拉萨市城关区北京中路35号,朝圣者的天堂,1.0,215,2724,91.12547202305252,29.6588808162848
黄鹤楼,5A,湖北省武汉市武昌区蛇山,孤帆远影碧空尽，唯见长江天际流,1.0,42,2699,114.31906255318887,30.548046179143302
黄浦江游船,,上海浦东区世纪大道1号,江中观景，享受休闲旅游,0.0,59,2681,121.50575081580605,31.24478016101388
大连圣亚海洋世界,4A,辽宁省大连市沙河口区中山路608-6-8号（星海广场西500米，星海公园内）,浪漫大连首站，浪漫的海洋主题乐园,0.82,110,2574,121.59015273862391,38.888177814218665
南昌万达主题乐园,,江西省南昌市红谷滩新区九龙大道,童话世界，从梦幻乐到真实,0.0,55,2502,115.862756270263,28.69708911214733
老虎滩海洋公园,5A,辽宁省大连市中山区滨海中路9号,浓缩极地世界，展现海洋奇观,0.9,4.8,2498,121.68319542441344,38.87629702499273
上海海洋水族馆,4A,上海市浦东新区陆家嘴环路1388号（近东方明珠）,穿越世界，来一次终生难忘的海洋之旅,0.74,159,2489,121.5085049998386,31.246059868518348
长隆欢乐世界,5A,广东省广州市番禺区长隆旅游度假区内,垂直过山车等挑战你的青春荷尔蒙,0.0,99,2420,113.34078676943722,23.011491468631867
泰山,5A,山东省泰安市泰山区红门路54号,会当凌绝顶，一览纵山小,1.0,122.2,2403,117.11993969768824,36.250641620679325
珠海长隆海洋王国,,广东省珠海市横琴新区富祥湾,经历一场难忘的深海历奇之旅,0.0,113,2396,113.55604791545103,22.117772180127176
青岛海底世界,4A,山东省青岛市市南区莱阳路2号,山中有海，偶遇美人鱼,0.74,103.9,2367,120.34223099470694,36.062978062173535
古北水镇,,北京市密云县古北口镇司马台村古北水镇,走进那个画中的小镇,0.0,95.8,2345,117.27522051865138,40.65181663884973
华山,5A,陕西省渭南市华阴市境内,只有天在上，更无山与齐,1.0,179,2342,110.05818818765898,34.532717876993104
长隆国际大马戏剧院,,广东省广州市番禺区迎宾路长隆欢乐世界东门侧,汇粹全球马戏精华,0.0,348.5,2324,113.33789530276434,23.005240897266642
八达岭长城缆车,,北京市延庆县军都山关沟古道北口八达岭长城景区内,巍峨雄伟尽收眼底,0.0,157.1,2319,116.01636706681387,40.36439024131364
深圳欢乐谷,5A,广东省深圳市南山区华侨城侨城西路,狂欢无罪，够胆你就来,0.8,219.5,2207,113.99009219119554,22.542435485609882
环球金融中心观光厅,4A,上海市浦东新区世纪大道100号,来上海登三高，眺望魔都霓虹闪烁,0.72,30,2186,121.51443399317066,31.24016458884712
合肥万达主题乐园,,安徽省合肥市滨湖新区庐州大道778号合肥万达乐园（万年埠路合肥万达诺富特酒店对面路口入内）,各种娱乐设施让你嗨不停,0.0,114,2151,,
上海杜莎夫人蜡像馆,4A,上海市黄浦区南京西路2-68号新世界商厦10楼,走自己的红毯，与世界明星相遇,0.74,120,2150,121.47994545482781,31.240529984213303
秦皇岛野生动物园,4A,河北省秦皇岛市北戴河区滨海大道中段,与动物“零距离”接触的野生动物园,0.7,50,2028,119.52852820937072,39.88491212416698
东部华侨城大侠谷,,广东省深圳市盐田区大梅沙东部华侨城,行走峡湾栈道，倾听大自然的天籁之音,0.0,179.1,2028,114.30689975122804,22.623797528874434
圆明园,4A,北京市海淀区清华西路28号,追忆昔日万园之园,0.76,3.3,2012,116.31929397877015,40.01911191725826
武夷山,5A,福建省南平市武夷山国家旅游度假区,满园春色尽在武夷风光,1.0,114,1996,117.99396571481952,27.659368301481173
水立方,,北京市朝阳区天辰东路11号奥林匹克公园内,中国的荣耀，阳光下的晶莹水滴,0.0,14.3,1960,116.39912692662858,40.00121047451763
云谷索道,,安徽省黄山市黄山风景区,先进的单线循环脱挂抱索器吊厢式索道设备,0.0,169,1928,118.17345524215514,30.060365124697995
常州中华恐龙园,5A,江苏省常州市新北区河海东路60号,以恐龙为主题的综合性游乐园,0.74,97.1,1916,119.99568562893344,31.825578749316914
大唐芙蓉园,5A,陕西省西安市雁塔曲江新区芙蓉西路99号,进入中国盛唐文化之旅,0.86,3.8,1914,108.98520437119093,34.21840524924432
阿尔山国家森林公园,5A,内蒙古兴安盟阿尔山市林海街,奇岩怪石姿态万千，堪称火山地质博物馆,1.0,275,1902,119.86615386420031,47.30100093281088
海棠湾,,海南省三亚市三亚旅游区海棠湾镇,海南三亚，浪漫的度假天堂,0.0,51,1894,109.71097211923305,18.318921445424436
鸣沙山月牙泉,5A,甘肃省酒泉敦煌市,形酷似一弯新月得名，水质甘冽，澄清如镜,0.86,10.8,1868,94.15804176645081,40.38877149934441
古堰画乡,,浙江省丽水市莲都区大港头镇,如此美景，恍如置身水墨画中,0.72,36,1838,119.74837172008166,28.301915845051433
宋城三亚千古情景区,,海南省三亚市河东区三亚海南省三亚市荔枝沟宋城三亚千古情景区,给我一个小时，带你穿越千年,0.0,120,1830,109.53410151892191,18.30333411463638
印象刘三姐,,广西壮族自治区桂林市阳朔县田园路1号,第一部山水实景演出，老谋子印象系列开山作,0.82,90,1794,110.50943870233041,24.765842671196317
北京野生动物园,4A,北京市大兴区一零六国道,北京郊区的一座大型自然生态动物园,0.7,2,1790,116.3303464018834,39.51359610085878
慕田峪长城,5A,北京市怀柔区慕田峪村,秀美长城，关键是人少,0.7,38,1762,116.56650873757421,40.433091768304315
普陀山,5A,浙江省舟山市普陀区,海天佛国 观音道场 ——普陀山,1.0,18,1750,122.27876474766273,29.87110137577138
西溪湿地（周家村入口）,5A,浙江省杭州市西湖区天目山路518号,游《非诚勿扰》拍摄地，感受湿地水乡浪漫,0.0,70,1746,120.05796419863466,30.248226597934618
北京杜莎夫人蜡像馆,,北京市东城区前门大街8号,中轴线上的巨星之旅,0.0,72,1744,116.40457309691851,39.90406847761363
嘉峪关方特欢乐世界,,甘肃省嘉峪关市方特大道4111号,科技互动体验营造的梦幻感受,0.0,230,1738,98.281634585257,39.80239732673353
广州正佳极地海洋世界,,广东省广州市天河路228号正佳广场2楼,梦幻主题式极地海洋体验,0.0,186.01,1738,113.3336548390296,23.138650503630014
青岛啤酒博物馆,4A,山东省青岛市市北区登州路56号青岛啤酒厂内,来这里深入了解啤酒的历史与文化,0.72,48.7,1724,120.35307947731688,36.08591400097332
分界洲岛,5A,海南省陵水县东北部分界洲岛,海水清澈，拥有众多珍稀动植物的“美女岛”,1.0,110,1712,110.20644937351246,18.58302252729106
澳门水舞间演出,,澳门特别行政区凼仔岛氹连贯公路新濠天地水舞间剧院,带你进入前所未见的视觉震撼新里程,1.0,363,1698,113.57850507529453,22.151158014925443
成都海昌极地海洋公园,4A,四川省成都市天府大道南沿线南端2037号（距华阳客运中心仅1公里）,置身极地世界，开启海底之旅,0.0,99,1696,104.07498333793414,30.49490123343773
成都欢乐谷,4A,四川省成都市金牛区西华大道16号（近北三环交大立交）,时尚、动感、欢乐、梦幻,0.74,75,1696,104.03712855959103,30.726305763053965
蓬莱阁,5A,山东省烟台蓬莱市迎宾路7号,道教传说中著名的神仙住所和人间仙境,1.0,135,1688,120.64966043126915,37.77702062311049
梦幻奥陶纪,,重庆市綦江区万盛黑山谷南门上行5公里,穿越5亿年，探索神奇远古寒冰洞,0.0,169.5,1644,107.00826705774239,28.894080445020702
成都武侯祠,4A,四川省成都市武侯区武侯祠大街231号,成都地标签到处,0.9,58,1642,104.0558629285102,30.650828829909614
国色天乡·陆地乐园,,四川省成都市温江区万春镇天香路88号国色天乡乐园,来这里体验惊险刺激,0.0,59,1640,103.8371918964552,30.729968007254367
鸽子窝公园,4A,河北省秦皇岛市北戴河区海滨东北角鸽赤路,来这里欣赏“红日浴海”的奇景,0.78,23,1616,119.53069903111019,39.841768019414836
华清宫（华清池·骊山）,5A,陕西省西安市临潼区华清路038号,览盛唐宫阙，登骊山怀古，赏长恨歌舞,0.9,75,1590,109.22000290215142,34.370229898232346
珠江夜游,,广东省广州市越秀区,珠江夜景，游广州必不可少的景点,0.0,66,1584,113.28783302666307,23.139277859339472
呀诺达热带雨林,5A,海南省保亭黎族苗族自治县三道农场呀诺达雨林文化旅游区,地处北纬18度的热带雨林,0.0,110,1584,109.69008256897854,18.4464688448354
宁波方特东方神画,,浙江省宁波市杭州湾新区天宝路188号,运用高科技诠释民间传统艺术,0.0,180,1546,121.63838540406807,29.812304545230223
东北虎林园,3A,黑龙江省哈尔滨松北区松北街88号,可近距离接触东北虎,0.7,88.9,1546,126.6047459354556,45.823753154137876
沙坡头旅游区,5A,宁夏回族自治区中卫市沙坡头区迎水桥镇,欧亚大通道，古丝绸之路的必经之地,1.0,28,1526,105.14034962512947,37.51298271594777
秦皇岛海滨国家森林公园,,河北省秦皇岛市北戴河区滨海大道中段,冬无严寒，夏无酷暑,0.0,50,1482,119.52852820937072,39.88491212416698
龙脊梯田,4A,广西壮族自治区桂林市龙胜县东南部和平乡境内,中国秀美梯田，脱离城市去触摸自然,0.78,3,1474,110.01515507868342,25.800983400466826
瘦西湖,5A,江苏省扬州市维扬区长春路118号,湖上园林的典型代表,1.0,59.5,1474,119.4390925175429,32.41578454348512
上海长风海洋世界,4A,上海市普陀区大渡河路451号（长风公园4号门）,和奥莉一起看海豚啦,0.7,160,1456,121.4030196427862,31.230307255251677
芜湖方特梦幻王国（二期）,,安徽省芜湖市鸠江区赤铸山东路华强文化科技产业园,东方梦幻乐园，亚洲科幻神奇,0.0,99,1426,118.46589745828385,31.36586115700339
新澳海底世界,4A,河北省秦皇岛市海港区河滨路81号,带你探寻海洋世界奥秘,0.72,78.5,1422,119.56907676609067,39.912099515856525
张家界国家森林公园,5A,湖南省张家界市武陵源区,三千奇峰，八百秀水,0.9400000000000001,248,1418,110.4884957873388,29.35720050870958
华侨城,5A,广东省深圳市南山区深南大道9012,世界几千年人类文明精华为您一次呈现,0.74,45,1412,113.99076477408998,22.540509385334687
香港海洋公园,,香港特别行政区香港仔黄竹坑南朗山,妙趣横生的大型主题公园,0.96,200,1404,114.1660709591865,22.25172293223026
银川花博会,,宁夏回族自治区银川市金凤区亲水北大街,一心、两轴、四岛、多园,0.0,45,1378,106.228626606865,38.52874743333173
海军博物馆,3A,山东省青岛市市南区莱阳路8号,一座大型专业性军事博物馆,0.78,25.1,1372,120.33737993744448,36.061057993051705
广州塔,4A,广东省广州市海珠区阅江西路222号,360度羊城全貌，感受王者之居高临下,0.0,75,1370,113.33099508307653,23.112234255549392
成都杜甫草堂,4A,四川省成都市青羊区青华路37号,成都地标签到处,0.86,55,1344,104.03379699957328,30.668386872289382
天津海昌极地海洋公园,4A,天津市滨海新区响螺湾中心商务区61号,快来与海洋动物亲密接触,0.0,78.8,1344,117.69032138633472,39.01319222777721
黑山谷,5A,重庆市万盛区黑山镇境内,重庆独特的生物基因库，西南神农架,0.72,118,1324,106.97195043625806,28.933780776905177
三亚骏达车技表演馆,3A,海南省三亚市海榆西线凤凰派出所西侧,极度震撼 颠覆想像 夜游三亚 必看演出,0.0,68,1308,109.4391095703936,18.30585444895059
塔尔寺,5A,青海省西宁市湟中县鲁沙尔镇,"佛光里的塔尔寺,梦中的青海湖",1.0,80,1308,101.57255572794953,36.50259911284262
芜湖方特东方神画（四期）,,安徽省芜湖市鸠江区赤铸山东路（芜湖方特二期附近）,非物质文化博览园,0.0,111,1304,118.47861915671272,31.359606495501453
世界公园,4A,北京市丰台区花乡丰葆路158号,40个国家的109处著名古迹名胜微缩景点,0.7,1.5,1302,116.29134530037055,39.81701668112492
崇圣寺三塔,5A,云南省大理市大理古城西北两公里的苍山应乐峰下,大理的标志和象征,0.86,98.01,1298,100.23898676601813,25.61667893371027
广州长隆旅游度假区,5A,广东省广州市番禺区番禺大道,一站式旅游度假胜地，广东必游景点,0.7,3.8,1296,113.3934216467933,22.942956954096605
鹿回头风景区,4A,海南省三亚市西南端鹿回头半岛内,天南旅行乡，鹿回头爱情的圣地,0.8,22,1288,109.5008225426711,18.21719284000799
成都动物园,,四川省成都市成华区昭觉南路234号,绿树成荫、湖光潋滟、鸟语花香、风景诱人,0.7,10,1286,104.10624427805419,30.703604775063607
长沙生态动物园,4A,湖南省长沙市长沙县暮云镇西湖村道芙蓉南路,亲近动物和自然，市民百姓旅游佳地,0.0,105,1266,113.00605622236708,28.047548952543163
西岛,4A,海南省三亚市三亚湾西岛,海上桃源，动感天堂,0.78,70,1262,109.42531779966612,18.29626162255213
同里古镇,5A,江苏省苏州市吴江市同里镇,世界同里，东方小威尼斯,0.8,45,1258,120.72990992518918,31.155732522388636
青岛方特梦幻王国,,山东省青岛市城阳区红岛街道岙东南路华南文化产业基地内,梦幻、惊险、刺激，你想要的，这里都有,0.0,228.1,1252,120.28175313050217,36.205137361335005
张掖冰沟丹霞地质公园,4A,甘肃省张掖肃南县康乐乡,危崖劲露，气势磅礴，苍劲雄浑,0.0,35,1250,99.92036938380082,38.972168127558746
武隆天坑地缝国家地质公园,5A,重庆市武隆县银杏大道武隆喀斯特旅游区,反映地球演化历史的杰出范例,0.0,59,1230,107.73360227399138,29.467080654705114
天安门广场,,北京市东城区天安门,我爱北京天安门，天安门上太阳升,1.0,20,1226,116.40390583019587,39.9151754663074
台儿庄古城,5A,山东省枣庄市台儿庄区华兴路东段,中华古水城，天下第一庄,0.0,95,1224,117.73850669960188,34.56657483982404
深圳野生动物园,4A,广东省深圳市南山区西丽镇西丽路4065号,放养式动物园让你和动物们“零距离”,0.0,29,1222,113.97527455557602,22.60027044853031
罗蒙环球乐园,,浙江省宁波市鄞州区鄞州大道中段1099号/萧皋东路820号罗蒙环球城,各个年龄段都能找到适合自己的娱乐项目,0.0,190,1218,121.55028798895368,29.805445765504224
天津方特欢乐世界,,天津市滨海新区中新生态城中生大道北首生态岛内,京津冀地区首家“科幻”高科技公园,0.0,197.1,1212,117.64628627057449,39.05917663803484
花之城,,云南省昆明市盘龙区金瓦路8188号,云南之行，美之一站,0.0,18.3,1210,102.79227932298305,25.06059865119661
玉渡山,,北京市延庆县张山营镇玉皇庙村东,延庆县城西北山中的玉渡山自然风景区,0.7,52,1204,115.85101085035251,40.48261816146429
南昌万达海洋乐园,,江西省南昌市九龙湖新区万达文化旅游城万达茂一楼,7个主题水池，带您玩转海洋乐园,0.0,90,1196,115.79104481091682,28.59043720771325
天府花溪谷,,四川省成都市大邑县金星乡和平村10组,天府花溪谷-休闲度假好去处,0.0,35,1196,103.5087628842744,30.737704685401717
壶口瀑布（陕西）,4A,陕西省延安市宜川县壶口乡,西北第一大瀑布,1.0,8,1192,110.42252271086454,36.14345538895065
武汉欢乐谷,4A,湖北省武汉市青山区欢乐大道196号,华中城市旅游新名片,0.0,78.9,1190,114.39808165242476,30.60000994475479
灵山大佛,5A,江苏省无锡市滨湖区灵山路1号,观释迦牟尼佛青铜立像，赏佛教胜景,1.0,195,1184,120.10934460044822,31.426931185423864
哈尔滨万达主题乐园,,黑龙江省哈尔滨市松北区世茂大道与宏源街交汇处,一站式文化娱乐新体验在万达乐园,0.0,37,1182,126.51433610226776,45.816252478672
海口观澜湖华谊冯小刚电影公社,4A,海南省海口市观澜湖大道（西线高速往观澜湖温泉1.8公里处）,以导演个人命名的电影主题旅游项目,0.0,128,1178,110.34016137788238,19.920726431884383
象山公园,4A,广西壮族自治区桂林市秀峰区滨江路1号,2017央视春晚分会场，绝美赏月地,0.0,35,1164,110.30050576469993,25.274413235147144
长白山北景区,,吉林省延边州安图县二道白河镇,领略美人松的飘逸，地下长林的浩荡,0.86,69,1160,128.13284177020378,42.43723377030355
嘉峪关,5A,甘肃省嘉峪关市明万里长城最西端,嘉峪关——万里长城西端的主宰,0.8400000000000001,8,1150,98.40475279553763,39.914711003026305
济南动物园,,山东省济南市天桥区济洛路87号,大型森林式动物园，自然生态环境浑然天成,0.0,22,1134,116.9991121269326,36.70836009739779
中国纽扣博物馆,,浙江省嘉兴市嘉善县西塘古镇内,江南传统民居向现代建筑转型过程中的代表,0.0,79,1128,120.90040291396349,30.94985173312398
苍山洗马潭索道,,云南省大理白族自治州大理市苍山景区下三月街天龙八部影视城内,体验在山云间穿梭之美，一览苍山美景,0.76,320,1124,100.15512187182117,25.68811977999186
古龙峡漂流,4A,广东省清远市清新县三坑滩,广东漂流看清远，清远漂流看古龙,0.76,37.01,1120,112.9554205095499,23.770490125633042
刘公岛,5A,山东省威海市海滨北路101-2号,北洋水师诞生地，甲午战争遗址,1.0,60,1106,122.14218786312804,37.49613735200491
外滩观光隧道,,上海浦东新区东方明珠广播电视塔和浦西南京东路外滩之间,具有迷幻色彩的魅力隧道,0.7,36.9,1098,121.49638814847572,31.244130753312295
天龙八部影视城,3A,云南省大理州大理古城苍山景区下,为拍摄《天龙八部》兴建的拍摄基地,0.76,26,1098,100.17122416786194,25.649826155673217
碧海金沙水上乐园,,上海市奉贤区海湾旅游区海涵路6号,阳光、海水、沙滩，今年夏天我们约吗,0.7,15,1098,121.55564816013789,30.82999146095915
虎丘,5A,江苏省苏州市金阊区山塘街虎丘山门内8号,苏东坡说到苏州不游虎丘乃憾事也,0.8,77.1,1094,120.58738237629699,31.34058907079879
沈阳世博园,5A,辽宁省沈阳市浑南区近郊高坎镇中马村双园路301号,植物种类多的让你眼花缭乱,0.7,43,1092,123.66048857208554,41.87425420447811
象鼻山,5A,广西壮族自治区桂林市民主路52号,桂林城徽，绝美赏月地领略三月争辉奇景,0.7,35,1084,110.30093826826044,25.27298847639753
镇北堡西部影城,5A,宁夏省银川市西夏区镇北堡西部影城,邂逅“东方好莱坞”,0.0,4.9,1080,106.0733387934918,38.63382260639246
苏州摩天轮乐园,4A,江苏苏州市吴中区工业园区金鸡湖东岸右岸街99号,水上摩天轮带给你最难忘的体验,0.0,65,1076,120.71999658490327,31.32164156370929
卓尔山,,青海省海北州八宝镇祁连县,风韵细腻和粗犷神奇完美结合,0.0,55,1068,100.25154832114777,38.18904464398858
秦岭野生动物园,4A,陕西省西安市长安区滦镇,走进大自然，亲近小动物,0.7,47,1064,108.83076802298348,34.07147578379972
上海影视乐园,3A,上海市松江区车墩镇北松公路4915号,真实艺术地展现上海的历史风貌和人文景观,0.7,62.5,1064,121.31662262834595,31.018482601020704
观音山梦幻水世界,,福建省厦门市思明区观音山商业街17号,领略热带美景、体验潜水激情,0.0,63.9,1060,118.20394057365473,24.500784361161195
黄果树瀑布,5A,贵州省安顺镇宁布依族苗族自治县黄果树瀑布,享有“中华第一瀑”之盛誉,1.0,229,1054,105.67644880148335,25.994862344451658
无锡水浒城,5A,江苏省无锡市山水城旅游度假区水浒城,畅游太湖山水 体验影视传奇,0.78,79,1052,120.24271157200405,31.490547564724565
夫子庙秦淮河,5A,江苏省南京市秦淮区龙蟠中路夫子庙,一条长江路，半部民国史,0.8800000000000001,12,1046,118.79688923727099,32.0277364279542
世界花卉大观园,4A,北京市丰台区南四环中路235号,揽天下奇花异草，聚世界经典园林,0.7,44.7,1032,116.35895791746118,39.83806919123985
崂山,5A,山东省青岛市崂山区内,游海上第一名山，享轻松旅途人生,0.82,95,1030,120.58490643507135,36.19558716954741
木府,,云南省丽江市古城区大研镇光义街49号,木府风云拍摄地,0.78,48,1028,100.24086907538312,26.875382186644405
太阳岛,5A,黑龙江省哈尔滨市松北区太阳岛风景区,位于城市中心的江漫滩湿地草原型风景名胜区,0.9199999999999999,135,1004,126.6030140760934,45.79785901191315
西江千户苗寨,4A,贵州省凯里市黔东南苗族侗族自治州雷山县西江镇南贵村,游览千户苗寨，感受苗族风情,1.0,48,1002,108.1945173513452,26.5193166070086
古北水镇天然温泉,,北京市密云县古北口镇司马台村古北水镇内。,水镇内河道密布，古老的汤河支流萦绕其间,0.0,136.9,1000,117.27533321736573,40.65210159207342
漓江,5A,广西壮族自治区桂林市阳朔县,分明看见青山顶，船在青山顶上行,1.0,70,994,110.48292929478309,24.857282289723944
千岛湖,5A,浙江省杭州市淳安县梦姑路,亲近大自然，放飞心情,0.78,30,992,119.0236211920245,29.6048978069085
银子岩,4A,广西壮族自治区桂林市荔浦县马岭镇小青山银子岩景区,桂林旅游圈新出现的一颗璀璨明珠,0.78,40,984,110.44995617861645,24.641980418678227
敦煌莫高窟,,甘肃省酒泉市敦煌市东南25公里,世界文化遗产，人类艺术的殿堂,0.9,6,974,94.3826181439453,40.38877149934441
金茂大厦88层观光厅,4A,上海市浦东新区浦东世纪大道88号观光厅,上海就在脚下,0.76,87.01,970,121.5117732122501,31.240453270891944
上海迪士尼《狮子王》音乐剧,,上海市浦东新区川沙新镇上海迪士尼度假区,从震撼人心的开场到沸腾热血的大结局，音乐剧《狮子王》全场精彩非凡。凭借华丽的服装和造型，演员变身成为草原上的动物角色，而,0.0,35,968,121.69920088312556,31.188112047267627
普达措国家公园,5A,云南省迪庆藏族自治州香格里拉县建塘镇双桥,张杰谢娜婚礼之地，原始森林中的伊甸园,0.8800000000000001,40,962,99.71181179932064,27.823170749437303
贵安欢乐世界,,福建省福州市连江县贵安温泉旅游度假区贵安新天地,生活中的童话，拥抱触手可及的快乐,0.0,164.1,946,119.40885242491575,26.250890855823794
东部华侨城,4A,广东省深圳市盐田区艺海东路东部华侨城,深圳唯美、动感的生态主题乐园,0.76,179.1,942,114.30689975122804,22.623797528874434
石林,5A,云南省昆明市石林彝族自治县境内,怪石林立，突兀峥嵘，姿态各异,0.78,3.5,938,103.4273356325576,24.754309493363852
桂林两江四湖景区,5A,广西壮族自治区桂林市秀峰区滨江路12号,重现唐宋时尚的环游桂林线路，轻悠旅程时光,0.7,45,936,110.30512552985137,25.278992074400104
淹城春秋乐园,5A,江苏省常州市武进区武宜南路197号,五大功能区带您畅游春秋文化主题梦幻乐园,0.0,95,932,119.9420242845192,31.672819111932498
岭南印象园,4A,广东省广州市番禺区外环西路,岭南景致，千种印象,0.74,52.4,922,113.39458822136208,23.074915446949955
临沂动植物园旅游区,,山东省临沂市兰山区经济技术开发区老327国道与厦门路交汇处东500米（沐河西岸陈家村）,自然、幽静、野趣、戏水、粗犷,0.72,40,920,118.21452211666282,35.17482551356547
周庄,5A,江苏省苏州市昆山周庄全福路,古香古色，品美食寻才子觅佳人,0.9,88,920,120.85392998389673,31.122582538733514
哈尔滨极地馆,4A,黑龙江省哈尔滨市松北区太阳大道3号,世界首座极地演艺游乐园,0.8,133.5,920,126.59361952340895,45.79141433189697
张氏帅府,4A,辽宁省沈阳市沈河区朝阳街少帅府巷46号,张学良的官邸和私宅,0.8,2.5,914,123.46410998388824,41.79972774571718
法门寺,5A,陕西省宝鸡市扶风县城北10公里法门镇,释迦牟尼佛指舍利供奉圣地,1.0,4,910,107.89463640318448,34.446574173339044
宋城丽江千古情景区,,云南省丽江市玉龙县玉兴西路88号,丽江大地上的千古文化演艺,0.0,240,910,100.22558782069683,26.83512426684121
庐山旅游观光车,,江西省九江市庐山区庐山风景区,景点载人运输工具，一览庐山美景,0.0,279.8,908,116.00083690051305,29.583965185024194
鼋头渚,5A,江苏省无锡市滨湖区鼋头渚1号,太湖佳绝处，毕竟在鼋头,0.9400000000000001,98.2,894,120.22617963080543,31.533590026803875
天津欢乐谷,4A,天津市东丽区东丽湖旅游度假区东丽之光大道,这刺激！带你过瘾带你high,0.0,166.5,888,117.52285029010952,39.18411841378168
可可托海,5A,新疆维吾尔自治区阿勒泰地区富蕴县可可托海镇以东5公里处,西北边陲上人少景美新去处,0.72,85,884,89.86273064249396,47.227368328207426
三峡人家,5A,湖北省宜昌市夷陵区西陵峡内,三峡风光，巴风楚韵,0.78,173,882,111.31098109196083,30.73275781802591
正定隆兴寺（大佛寺）,4A,河北省石家庄市正定县中山东路109号,全国重点文物保护单位,1.0,45,876,114.58882600019226,38.14775405553098
重庆欢乐海底世界,,重庆市核心区渝中区化龙桥企业天地2号楼LG层,开启绚丽浪漫的海洋之旅,0.0,29.9,874,106.5229472986916,29.556246177189557
大慈恩寺（大雁塔）,5A,陕西省西安市雁塔区大雁塔南广场北侧,唐僧（玄奘）藏经处，古都西安的象征,0.72,49,874,108.97054385548836,34.222223746607085
明十三陵,5A,北京市昌平区十三陵特区,气势磅礴的陵寝建筑群,0.72,53.8,866,116.23018686464023,40.30152702852488
发现王国,,辽宁省大连市金州区金石路36号金石滩国家旅游度假区,发现快乐，发现王国,0.0,40,862,122.00648206514302,39.08660070663162
景洪曼听公园,4A,云南省西双版纳傣族自治州景洪市曼听路35号,古老的傣王御花园,0.86,43,856,100.81437871033778,22.000340947055978
天山天池,5A,新疆维吾尔自治区昌吉回族自治州阜康市,湖畔森林茂密，绿草如茵,1.0,215,840,88.30594927128107,44.4241036935117
西递村,5A,安徽省黄山市黟县西递镇西递村,徽派建筑，乡间水墨画,0.7,52,832,117.99893905032465,29.90807991339602
衡山,5A,湖南省衡阳市南岳区,华山如立，嵩山如卧，惟有南岳衡山独如飞,1.0,115,826,112.70876706188415,27.259358565855813
合肥万达水乐园,,安徽省合肥市滨湖新区庐州大道778号万达茂内（万年埠路合肥万达诺富特酒店对面路口入内，合肥万达主题乐园对面）,四季恒温无限亲水体验,0.0,29,824,,
芦笛岩,4A,广西壮族自治区桂林市秀峰区芦笛路1号,大自然艺术之宫，接待300位国宾的溶洞,0.76,55,824,110.30382467657499,25.30137864294652
黄龙洞,4A,湖南省张家界市武陵源区索溪峪镇河口村,石柱、石幔、石花、石瀑，无奇不有异彩纷呈,0.8400000000000001,95,816,110.6204741375327,29.367694541601438
青秀山旅游区,5A,广西壮族自治区南宁市青秀区青山路19号,被誉为“南宁市的巨肺”,0.82,17.2,814,108.37649841709074,22.798836388758374
青岛森林野生动物世界,4A,山东省青岛市黄岛区小珠山风景区,大型动物表演、竞技、运动会，其乐无穷,0.7,65,810,120.0671847657113,35.98801961034616
恐龙传奇,,辽宁省大连市沙河口区连星海广场西500米,前所未见的、亦真亦幻的史前世界扑面而来,0.0,110,810,121.59015273862391,38.888177814218665
槟榔谷黎苗文化区,5A,海南省三亚市保亭黎苗族自治县甘什岭自然保护区,一个逃逸世俗的心灵驿站,0.72,45,808,109.66944268118112,18.405719431813925
碧螺塔海上酒吧公园,4A,河北省秦皇岛市北戴河区东海滩路中段(近鸽子窝公园),一个具有百老汇风情的中国式酒吧公园,0.7,15.5,804,119.53316435781957,39.84270510925727
宁乡炭河古城,,湖南省长沙市宁乡县沩山脚下黄材镇,第6批全国重点文物保护单位,0.7,220,800,112.48141081751027,28.314711681926422
杭州飞来峰,,浙江省杭州市西湖区灵隐路法云弄1号,江南少见的古代石窟艺术瑰宝,0.72,45,800,120.10747772037806,30.247419035959727
青鱼湾水上乐园,,云南省昆明市海口镇小海口收费站右转2公里处,感受云南大型水上乐园的乐趣,0.0,38,800,102.54548007008432,24.85133427950515
蝴蝶泉,3A,云南省大理白族自治州苍山云弄峰下,蝴蝶泉“三绝”：泉、蝶、树,0.8,44.5,798,100.22367478928341,25.59689963942069
两江国际影视城（民国街）,,重庆市渝北区民生路,以“民国历史”、“巴蜀特色”为主题的街区,0.0,19,798,106.82951312399798,29.689538256562386
大报恩寺遗址公园,,江苏省南京市秦淮区雨花路正学路1号,长干里是江南佛教圣地素有“佛陀里”之美,0.0,39.9,796,118.78923128161203,32.01298637457044
《文成公主》,,西藏拉萨市城关区慈觉林（原次角林）中国西藏文化旅游创意园,藏文化的“活字典”，汉藏民族融合的史诗,0.0,237,792,91.16872999081491,29.666400338844777
开封府,4A,河南省开封市包公东湖北岸,开封有个包青天，铁面无私辨忠奸,0.96,57.6,788,114.3534390548685,34.796073938005485
八达岭野生动物园,3A,北京市延庆县八达岭中心停车场对面,身临“野性天地”，感受“适者生存”,0.7,78.1,786,115.9835086682088,40.3678374466532
黄腾峡漂流,4A,广东省清远市清城区东城街石板村黄腾峡,到“小九寨”体验“漂流之王”,0.74,30.01,786,113.07866068093232,23.745057908466077
西塘古镇,5A,浙江省嘉兴市嘉善县西塘镇,水墨西塘让你感受古镇千年的诗情画意,0.8400000000000001,79,780,120.89788603439919,30.944459544613423
苍山国家地质公园,4A,云南省大理白族自治州大理市漾濞彝族自治县,绝色美景，不去就真的遗憾,0.8800000000000001,70,778,100.08015700952919,25.520968779036284
苏州古运河,,江苏省苏州市沧浪区新市桥古运河观光码头,荡舟于此，感受江南的繁华与奢靡,0.72,43,770,120.6202105370403,31.2968750734618
玉龙雪山,5A,云南省丽江市玉龙纳西族自治县,壮美大雪山，十三座雪峰连绵不绝,0.96,48,760,99.95163393672385,27.104463367195347
平遥古城,5A,山西省晋中市平遥县,游览原汁原味古城，感受浓郁的晋商文化气息,1.0,3,760,112.26549326017494,37.14808977846167
稻梦空间,,辽宁省沈阳市沈北新区兴隆台锡伯族镇兴光村,以稻米为主题的创意农业产业园,0.0,44.4,758,123.32635378920381,42.07698799069408
丽江古城,5A,云南省丽江市玉龙纳西族自治县东大街1号,一座没有城墙的古城，依山傍水，风景秀丽,1.0,48,754,100.24009635298368,26.878090668036737
剑门关,5A,四川省广元市剑阁县河东街64号,自然风光雄、奇、幽、秀,1.0,95,752,105.47749744578326,32.04435678529149
南浔古镇,5A,浙江省湖州市南浔区南浔镇人瑞路51号,水乡古镇九十九，不如南浔走一走,0.0,66,750,120.4378885005139,30.874672037351925
常州淹城野生动物园,5A,江苏省常州市武进区武宣中路588号,可以自驾游览的野生动物园,0.0,162.8,748,119.94343167667479,31.672903473648443
青海湖二郎剑,5A,青海省海南州青海湖东南岸,青海湖旅游区一颗耀眼的明珠,1.0,95,746,100.6240660940972,36.284363803805
大明宫国家遗址公园,4A,陕西省西安市新城区自强东路585号大明宫国家遗址公园丹凤门,唐代长安城禁苑,0.72,81.1,734,108.96485075538664,34.28675059065183
青海湖,5A,青海省海南藏族自治州共和县,内陆湖泊和咸水湖,0.0,95,734,100.06487566684491,36.53834236481261
狮子林,4A,江苏省苏州市平江区园林路23号,苏州园林中代表元朝艺术风格的私家园林,0.9,2.7,732,120.63583281455406,31.326831783996866
国色天乡·水上乐园,,四川省成都市温江区万春镇天香路88号国色天乡乐园,带你领略地中海异国风情的浪漫与激情,0.0,10,730,103.8371918964552,30.729968007254367
龙庆峡,4A,北京市延庆县古城村,古城九曲，带给你柳暗花明又一村的美景,0.7,3.8,728,116.0298191918258,40.54840852659989
库木塔格沙漠公园,,新疆吐鲁番市鄯善县库木塔格景区,诠释古楼兰王国消失的一片圣地,0.0,27,724,89.88134386732453,42.752178581536604
乌镇西栅,,浙江省嘉兴市桐乡市乌镇西大街,水乡风貌原汁原味，文化底蕴千年积淀,0.0,165,724,120.49419322269236,30.748936470742294
武汉东湖风景区,,湖北省武汉市武昌区,港汊交错，碧波万顷,0.0,35,724,114.35362228468497,30.56486029278519
天目湖南山竹海景区,5A,江苏省常州溧阳市横涧镇李家园下场园10号,万亩竹海让你返璞归真,0.8800000000000001,79.5,722,119.54000699073666,31.182288244325736
上海科技馆,5A,上海市浦东新区世纪大道2000号(近二号线上海科技馆站),技术改变生活，只有想不到没有做不到,0.74,60,720,121.54798274405168,31.224550782471162
广东科学中心,4A,广东省广州市番禺区大学城西六路168号,感受科技，聆听科技时尚的声音,0.0,47,718,113.36882365334388,23.04247587749507
东部华侨城茶溪谷,,广东省深圳市盐田区大梅沙东部华侨城,茶、禅、花、竹，绿的世界，花的世界,0.0,259.01,716,114.30689975122804,22.623797528874434
厦门方特梦幻王国,4A,福建省厦门市同安区石浔南路1111号,科幻和互动体验，充满幻想和创意的神奇天地,0.0,220,716,118.18758647000331,24.688241226782733
伏尔加庄园,4A,黑龙江省哈尔滨市香坊区哈成路16公里处,感受俄式建筑独特风情,0.0,84,716,126.78914756630654,45.716808886581845
求仙入海处,4A,河北省秦皇岛市海港区南山街56号,珍禽徜徉于林木间，给人回归大自然的享受,0.72,25,716,119.62979912569932,39.92153702000536
“最忆是杭州”- G20峰会特别版《印象西湖》,,浙江省杭州市西湖区北山路22号岳庙对面,城市内涵和山水浓缩成高水准的艺术盛宴,0.0,220,710,120.15991342994538,30.265792180303794
武当山,5A,湖北省十堰市丹江口市武当山景区,天下第一仙山，武当拳的发源地,1.0,9.8,708,111.01850103201758,32.405698518417154
上海中心大厦,,上海市浦东新区陆家嘴环路479号（近东泰路）,中国第一高楼及世界第三高楼,0.0,150,706,121.51271813981604,31.238484734981984
金沙遗址,4A,四川省成都市金沙遗址路2号,看沉睡千年的太阳神鸟，了解神秘古蜀文化,0.7,68,704,104.01824526958443,30.68525396376359
沈阳鸟岛公园,3A,辽宁省沈阳市东陵区东高公路,自然生态的鸟类观赏中心，感受生命的魅力,0.0,27,700,123.63281445357862,41.842453473970316
灵山小镇拈花湾,,江苏省无锡市滨湖区马山环山西路,东方禅意度假胜地，世界佛教论坛永久会址,0.0,399,700,120.07420344315237,31.40003389632786
象山影视城（三生三世拍摄地）,4A,浙江省宁波市象山县新桥镇大塘港生态旅游区,芈月伴你游 （琅琊榜拍摄地）,0.7,70,698,121.82083779274842,29.288066863525668
姑苏水上游,,江苏省苏州市金阊区石路名人街25号万人码头,朱楼映绿水，画舫泛碧波,0.0,43,698,120.6114723384632,31.319267199408422
毕棚沟,4A,四川省阿坝州理县朴头乡朴头村88号,知名的红叶观赏圣地，成都西北伊甸园,0.7,89,696,103.09551815382564,31.39472214344433
武夷山印象大红袍,,福建省南平武夷山市大王峰路中华武夷茶博园印象大红袍剧场,唯美画面演绎武夷山茶文化,0.0,188,696,117.98399727786675,27.64454913850329
大角湾,5A,广东省阳江市江城区迎宾路闸坡镇海滨路38号,阳光灿烂，沙质均匀松软，海水清澈纯净,0.9,14,696,111.84808369149674,21.57475243922354
苍山感通索道,,云南省大理市苍山景区感通索道,"仰望苍山雪峰,俯瞰百里洱海",0.72,90,696,100.17122416786194,25.649826155673217
石家庄动物园,,河北省鹿泉市获鹿镇杜家庄村西北侧,观赏动物与游览风景结合，别具特色,0.7,48,694,114.32867695536717,38.09388623529066
芜湖方特欢乐世界（一期）,5A,安徽省芜湖市鸠江区银湖北路80号,找刺激，不去玩就赔大了,1.0,98.5,692,118.38024651801034,31.38412354182922
贵安水世界,,福建省福州市贵安温泉旅游度假区贵安新天地,穿越玛雅文明古国，追溯神秘的水世界,0.0,164.1,692,119.40885242491575,26.250890855823794
恩施大峡谷,5A,湖北省恩施市西北部沐抚办事处境内,有天坑，有地缝，有天生桥，有溶洞,0.0,190,690,109.20738414953398,30.44284302357446
红海滩国家风景廊道,,辽宁省盘锦市大洼县赵圈河镇红海滩湿地旅游度假区,观赏鸟儿的飞翔，感受盘锦石油的燃情岁月,0.0,110,690,121.99405727105808,40.97857462926509
南靖土楼群,,福建省漳州市南靖县书洋镇(旧圩)田螺坑,美不胜收的土楼王国,0.0,84.9,690,117.11954994487981,24.631922682673295
港澳通行证团队送关服务,,香港特别行政区,您出行的好帮手,0.0,1,688,114.18612410257077,22.29358599327966
重庆长江索道,3A,重庆市渝中区新华路151号,万里长江第一条空中走廊，俯瞰滚滚长江,0.0,2,686,106.58927519483514,29.563881074617044
乌尔禾魔鬼城,4A,新疆克拉玛依市东北部乌尔禾区境内,具有丰富的科学内涵和极高的观赏价值,1.0,88,678,85.51114926401839,46.00657561684927
长岛,4A,山东省烟台市长岛县长岛风景区,朝看黄海日出，暮观渤海日落,0.78,105,678,120.75278965154521,37.938503405993075
常州环球动漫嬉戏谷,4A,江苏省常州市武进区太湖湾嬉戏谷大道1号,注重数字化互动体验，回到逝去的童年,0.0,99,676,120.05402675760132,31.503795275891747
长江大桥,,湖北省武汉市武昌区,一桥飞架南北，天堑变通途,0.9,70,676,114.35362228468497,30.56486029278519
江西龙虎山,5A,江西省鹰潭市西南20公里处贵溪市境内,神秘的古越族文明，体验绝美的自然风光,0.7,135,676,117.19787036817073,28.190604458955477
东方山水乐园,,浙江省绍兴市柯桥区稽山南路118号,功能齐全的室内游乐场馆,0.0,135,674,120.58971976468403,29.99277871610717
喀纳斯,5A,新疆阿勒泰布尔津县环城南西路3号,【注意】水怪出没！快来一探究竟吧,1.0,335,670,87.23551809650492,48.316006614630034
华南植物园,4A,广东省广州市天河区天源路1190号,永不落幕的“万国奇树博览会”,0.72,13.1,666,113.37087965906223,23.1928516486324
珠江夜游天字码头,,广东省广州市越秀区沿江中路天字码头(地铁2号线海珠广场A出口),文艺控不可放过的地方,0.0,60,666,113.27190654897268,23.12039342356703
色达喇荣五明佛学院,,四川省甘孜藏族自治州色达县炉色路,大型佛学院,0.0,388,664,100.21388463776825,32.35662037159181
无锡三国城,5A,江苏省无锡市山水城旅游度假区三国城,品味东吴音韵，观看金戈铁马,0.74,79,664,120.23709459610787,31.483603022648268
绿石谷国家森林公园,3A,辽宁省本溪市本溪县草河掌镇汤沟,因谷中石上苔藓碧绿，大小瀑布众多而闻名,0.7,33.3,662,124.05521743115925,41.07594072829538
泰安太阳部落,,山东泰安市岱岳区满庄镇大汶口石膏工业园太阳部落景区,史前文化和游乐项目有机融合，远古文明再现,0.0,52,658,117.08818903913296,36.0513648865529
云南民族村,4A,云南省昆明市西山区滇池路1310号,体验云南多个种族的文化沉淀,0.78,30,658,102.67465616702044,24.97368107796902
赛里木湖,,新疆博尔塔拉蒙古自治州博乐市东北48公里怪石沟景区内,神奇秀丽的自然风光,0.0,63,654,82.30547132396781,44.844209020588075
黄果树风景名胜区,5A,贵州省安顺镇宁布依族苗族自治县黄果树风景名胜区,珠帘钩不卷，匹练挂遥峰,0.0,229,652,105.68166102696588,25.98605277186374
城隍庙九曲桥,,上海市黄浦区福佑路238号豫园内,亲身体会上海的风土人情,0.0,338,652,121.49895542836897,31.232869164909232
八大关,,山东省青岛市市南区正阳关路14号,欣赏别墅的建筑之美，探寻伟人昔日足迹,0.0,103.9,652,120.3573796909457,36.06025312759896
深圳玛雅水公园,,广东省深圳市南山区华侨城侨城西路深圳欢乐谷内,在玛雅文明的水上乐园中狂欢，激情夏日,0.0,28,650,113.98590559435071,22.5455800326646
豫园,4A,上海市黄浦区安仁街218号,“奇秀甲于东南”、“东南名园冠”。,0.8400000000000001,1.5,648,121.4991326164359,31.232032806082728
罗源湾海洋世界,,福建省福州市罗源县罗源湾开发区江滨南路1号,探索神奇的海洋世界，观看精彩的动物表演,0.0,73,644,119.58482651004007,26.479009949026082
洱海游船,,云南省大理市洱海南路大理港,游船在洱海上飘荡，尽情享受大自然的美景,0.0,115,640,100.24165638806063,25.60729444635185
莫干山,4A,浙江省湖州市德清县莫干山风景名胜区,古有莫邪，今有莫干名山,0.82,65,636,119.87076846934359,30.606515243618475
星海公园,,辽宁省大连市沙河口区中山路634号,800多米弓形海水浴场，海天相连心旷神怡,0.8800000000000001,110,634,121.57632732185901,38.88485615173242
宜兴竹海,4A,江苏省无锡宜兴市湖滏镇竹海村,华东第一竹海,0.74,36,634,119.71408422568223,31.17657032174801
恩施土司城,4A,湖北省恩施市土司路138号,一座土家族土司文化标志性工程,0.8800000000000001,21,632,109.47788330875007,30.30921541263744
郑州方特欢乐世界,4A,河南省郑州市中牟县郑开大道与人文路交汇口以南,新颖的参与方式，惊险刺激,0.0,229.1,632,113.94545809018264,34.78660384411969
新加坡环球影城,,新加坡圣淘沙名胜世界之内/Resorts World™ Sentosa Singapore 8 Sentosa Gateway Singapore 098629,让电影世界的神奇，为你掀开探险旅程的序幕,0.0,15,626,,
云冈石窟,5A,山西省大同市城西约16公里的武州山南麓,石头写成的千年史卷,1.0,4,624,113.29050867308048,40.11374449970518
乌镇,5A,浙江省嘉兴市桐乡市乌镇石佛南路18号,鱼米之乡，丝绸之府,1.0,134.5,622,120.4952183581607,30.752402763197956
东莞香市动物园,,广东省东莞市寮步镇香市旅游区,动物表演精彩绝伦，体验不一样的快乐,0.0,90,614,113.88126801675114,23.003716160989693
株洲方特欢乐世界,,湖南省株洲市云龙示范区华强路1号,您和孩子一起疯，一起涨姿势的地方,0.0,185,608,113.17446420357336,27.934854931885955
织金洞,4A,贵州省毕节市织金县官寨乡织金洞景区,黄山归来不看岳， 织金洞外无洞天,1.0,126,606,105.86969541601559,27.236615792954698
侠天下旅游区,4A,福建省三明市尤溪县汤川乡胡厝村,中国第一世界首家侠文化山水体验景区,0.0,118,598,118.54829763385489,26.14654321347239
镜泊湖风景区,5A,黑龙江省牡丹江市宁安市火山口旅游公路,湖光山色，原始森林，熔岩隧道的绝妙景观,0.9,45,598,128.8214934370393,44.08565417378218
北戴河,,河北省秦皇岛北戴河区北戴河,北方的三亚,1.0,15.5,596,119.47932079421292,39.854292584186524
仙栖洞,3A,北京市房山区张坊镇东关上村,洞内恒温，支洞遍布，暗河无源,0.7,41,594,115.74452312358834,39.66067664830846
天津泰达航母主题公园,4A,天津市滨海新区汉沽汉北路269号,军事主题公园,0.7,198,594,117.8158020889032,39.16315265666405
信号山公园,3A,山东省青岛市市南区齐东路17号,俯瞰青岛前海建筑群和海滨风光的佳处,0.72,8.8,594,120.33834175045911,36.0739626766899
成山头,4A,山东省威海市荣成市西霞口村成山头风景区,其山的形状酷似“八卦”而得名,0.8,5.4,592,122.70362789508415,37.417975835116586
白水洋,5A,福建省宁德市西北部屏南县境内,享水上游乐之欢畅，品天下绝景之清凉,0.9,39,590,118.98929146415664,26.921561586230602
恭王府,5A,北京市西城区什刹海前海西街17号,一起去看看和珅家,0.74,20,590,116.39312991180671,39.942184225121196
沙湖旅游区,5A,宁夏省石嘴山市平罗县境内西大滩（沙湖生态旅游区）,看珍鸟奇禽，群鸟嬉戏的绝佳之地,1.0,200,588,106.3724286931741,38.86023878645914
武汉玛雅海滩水公园,,武汉市洪山区东湖生态旅游风景区欢乐大道196号,融玛雅文明与水上游体验超大型水主题乐园,0.0,79,586,114.39808165242476,30.60000994475479
长沙世界之窗,4A,湖南省长沙市开福区三一大道485号(靠近湖南广电),将刺激的游乐项目和各国的历史遗迹融为一体,0.72,137,574,113.05897080600802,28.240395604368327
澳门旅游观光塔,,澳门特别行政区澳门半岛南湾新填海区D区域1号地段,登高望远，全澳景色尽收眼底,0.72,10,574,113.55400466117939,22.19611516647714
大小洞天,5A,海南省三亚市以西四十公里（崖城镇南山村）,具备山、海、天一色的道家文化景区,0.78,98,572,109.19019829703815,18.32343339552453
野象谷,4A,云南省西双版纳傣族自治州景洪市勐养镇三岔河,与憨态可掬的大象漫步在热带雨林,1.0,76,572,100.87686784911804,22.08184859199783
暹罗海洋世界,,"Siam Paragon B1-2, 991 Rama 1 Road, Bangkok",超过3万只的海洋生物世界等你去探索,0.0,50,566,,
漫山花溪谷,,河北省石家庄市灵寿五岳寨漫山旅游休闲度假区,细细品味这里独有的漫山、漫水、慢生活,0.0,45,564,113.85325187055179,38.714109409319526
藏龙百瀑,,浙江省湖州市安吉县天荒坪镇大溪村,集奇、险、幽、秀于一体的原始生态景区,0.78,45,562,119.61136748214379,30.44708491496185
火山口公园,4A,海南省海口市秀英区石山镇,万年火山，千年文化，火山奇观,0.0,40,562,110.21627576500822,19.941438810330066
山海关老龙头景区,,河北省秦皇岛市山海关区龙海大道1号,人类历史上的千古奇观,0.76,50,560,119.8052330400159,39.97468928277155
雁栖湖旅游区,4A,北京市怀柔区雁水路3号,你和鱼儿都喜欢的纯净圣地,0.7,4.5,560,116.69292649046763,40.403443264142005
曲江海洋极地公园,4A,陕西省西安市雁塔区曲江二路1号,极地公园四馆八区带你畅游海洋世界,0.7,2,556,108.98604030555275,34.22128395254577
噶丹松赞林寺,4A,云南省迪庆藏族自治州香格里拉县尼旺路下段,寻梦香格里拉，寻找消失的地平线,0.9,104,556,99.7119061752975,27.866161075039322
独秀峰王城景区,5A,广西壮族自治区桂林市秀峰区王城路1号,明代王府清朝贡院所在地，阅尽王城知桂林,0.72,60,552,110.27454852003125,25.287138490984887
红山森林动物园,,江苏省南京市玄武区和燕路168号,惊险有趣的大型斗兽表演,0.0,38,552,118.80525812089361,32.10212389126866
皇城相府,5A,山西省晋城市阳城县北留镇皇城村,大美皇城，传统中国年,1.0,80,552,112.58864031093772,35.518601891157644
中山陵,5A,江苏省南京市玄武区石象路7号,被誉为“中国近代建筑史上第一陵”,1.0,0.5,552,118.84760955880598,32.05287694557689
北海海底世界,4A,广西壮族自治区北海市银海区茶亭路27号海滨公园内,畅游蓝色海洋之谜，欣赏人鱼共舞,0.76,108,548,109.13453955445503,21.493166789921077
重庆汉海海洋公园,,重庆市巴南区龙洲湾铜锣山通江广场,休闲娱乐和海洋科普基地,0.0,98,548,106.56139067463961,29.402147558770046
德天瀑布,4A,广西壮族自治区崇左市大新县硕龙镇德天瀑布景区,世界第四大、亚洲第一大跨国瀑布,1.0,77,546,106.73688906657284,22.856442024379046
西湖,5A,浙江省杭州市西湖区龙井路1号,在这里邂逅你的白娘子吧,1.0,7,546,120.12962149018232,30.253643890991935
武隆天生三桥风景区,5A,重庆市武隆县龙桥街巷口镇芙蓉路88号,变形金刚大战黄金甲,0.72,133,542,107.7488416676409,29.33377765594922
京东石林峡,4A,北京市平谷区黄松峪乡雕窝村73号,谷内山峰挺立峭拔，天上美景落人间,0.7,10,534,117.25660651817903,40.26585286979517
胡里山炮台,4A,福建省厦门市思明区曾厝垵路2号,八闽门户、天南锁钥,0.8400000000000001,22,532,118.11242373526183,24.43727235188261
珠江夜游广州塔码头,,广东省广州市海珠区阅江路222号广州塔码头（地铁广州塔站B出口）,珠江夜游，领略不一样的珠江风情,0.0,45,532,113.32619626138276,23.113183643418477
善卷洞,4A,江苏省无锡宜兴市张渚镇川善线善卷洞,江南第一古迹,0.74,92,528,119.64126094795552,31.27516360394528
丽水冒险岛水世界,,浙江省丽水市莲都区琵琶圩路,中世纪欧洲维驯龙主题，开启奇幻水上之旅,0.0,215,528,119.84995169272179,28.447361330679005
龙门石窟,5A,河南省洛阳市洛龙区龙门中街13号,世界文化遗产 中国石刻艺术宝库,1.0,112,528,112.48389489442202,34.571935149197564
栈桥,,山东省青岛市市南区太平路14号,在这里感受惊涛拍案，飞阁回澜,1.0,25.1,526,120.32677078857496,36.06804235795931
北九水游览区,,山东省青岛市崂山区崂山风景区内,水自门中出，人从涧底过，仰视巨岩悬空,0.72,95,526,120.60808955437035,36.14851556167
北海金海湾红树林,4A,广西省北海市银海区区东南方约15公里处,摸螺、捉蟹、挖沙虫，跟渔民一起赶海去,0.0,65,526,109.25159081409628,21.489722620570344
中国福州云顶,,福建省福州市永泰县,云顶上的世外桃源,0.0,61,522,118.79474057257245,25.857384057085046
麦积山风景名胜区,5A,甘肃省天水市麦积区麦积镇麦积村,中国佛教四大石窟之一，完美的石窟艺术宝库,1.0,88,522,106.00670306388055,34.37424252324822
木兰天池,5A,湖北省武汉市黄陂区长轩岭镇石门山,游览浪漫山水，高峡人家和森林公园,0.72,64.09,520,114.2909059511993,31.18298079338014
日照海滨国家森林公园,4A,山东省日照市东港区北沿海路北首,中国沿海仅存未被污染的黄金海岸,0.82,53.7,520,119.62169025391165,35.53539925013431
三亚果喜红艺人剧场,,海南省三亚市解放四路13号,不出国门一睹泰国人妖的芳容,0.0,101,518,109.50849585935175,18.266295091284114
冰糖峪大峡谷,,河北省秦皇岛市抚宁县大新寨镇,冬暖夏凉的胜地,0.0,49.4,518,119.29016504045165,40.06474509430361
玉垒阁,,四川省成都市都江堰市城西公园路都江堰风景名胜区内,拥有全国景区户外第二长的扶手电梯,0.0,258,516,103.61415737053804,31.013680961503045
杭州乐园,4A,浙江省杭州市萧山区风情大道2555号,长三角地区新一代综合性主题公园,0.72,8,514,120.2509708866087,30.16857135148774
东江湖,5A,湖南省郴州资兴市x203,急流险滩，龙景峡谷,0.86,95,512,113.46852207840365,25.93718440592866
西安碑林博物馆,4A,陕西省西安市碑林区三学街15号（近书院门）,每一块碑石都经历了一段历史,0.8,66.01,510,108.95967104227368,34.2586290952057
牛首山文化旅游区,4A,江苏省南京市江宁区宁丹大道18号,佛教牛头禅的发祥地,0.0,49,510,118.77777825360991,31.864157836905946
明月山,5A,江西省宜春市袁州区环城南路,嫦娥的故乡，传说是当年嫦娥奔月的地方,1.0,93.6,508,114.39233110877618,27.776756356364775
白水寨,4A,广东省广州市增城市派潭镇白水寨风景名胜区,北回归线上的瑰丽翡翠,0.72,47,508,113.77036058738905,23.586494075194732
丽江旅游专线车,,云南省丽江市,随你所欲，带你游遍丽江，享受任性的旅程,0.0,59,502,100.22962839887937,26.875351089481363
荣国府,4A,河北省石家庄市正定县兴荣路51号,走进荣国府，花开红楼梦,0.74,36,500,114.58570493830807,38.153506538495705
杭州动物园,4A,浙江省杭州市西湖区虎跑路40号,一座别致的园林式的动物园,0.7,20,500,120.14166764669817,30.21955677164481
武陵山大裂谷,4A,重庆市涪陵区兴华东路10号,峡谷景观、山林景观、田园景观,0.0,149,498,107.41219242713774,29.698709685191652
凤凰古城,4A,湖南省湘西土家族苗族自治州凤凰县凤凰古城,邂逅数个人，偶遇一座城,1.0,44,494,109.60637989887526,27.953770909932103
中国死海,4A,四川省遂宁市大英县中海大道888号,恒温海域随你四季畅游,0.9199999999999999,187.8,494,105.25279561740905,30.60657196900757
连云港花果山,5A,江苏省连云港市新浦区郁林路5号,大圣故里，神话仙境,1.0,50,492,119.3002456569015,34.65277017975536
成都环球中心,,四川省成都高新南区天府大道北段1700号,一个巨大的城市综合体,0.0,90,492,104.06854424810638,30.57275983030413
普者黑,4A,云南省文山壮族苗族自治州丘北县城西13公里,中国独一无二的喀斯特山水田园风光,1.0,65,492,104.34003905513708,24.086108303040064
大召寺,3A,内蒙古呼和浩特市玉泉区大召前街大召寺,霸气侧漏皇上住过地方果然不一样,0.9,9.9,492,111.66079997104663,40.80578899715421
哈尔滨波塞冬海洋王国,,黑龙江省哈尔滨大剧院东9km（哈尔滨避暑城）,全球首创海豚漂流河 与海豚一起冲浪漂流,0.0,130,492,126.59354362916963,45.81591929367042
清江画廊,5A,湖北省宜昌市长阳县龙舟坪镇晒鼓坪村,无法抗拒的山清水秀，谁来谁说好,0.72,61,490,111.1411767190379,30.47828661151683
成都松鼠部落森林假日公园,,四川省成都天府新区合江街道（原合江镇）东山大道二段北侧（近莓园新村）,抛开城市钢铁森林枷锁，亲近自然的绝佳优选,0.0,59.9,490,104.1539921803177,30.407943917252503
夜游三亚湾,,海南省三亚市三亚湾,乘豪华游艇观赏三亚湾动人夜景,0.0,34,490,109.42531779966612,18.29626162255213
云台山,5A,河南省焦作市修武县修武正北30公里方庄（靠近233省道）,那片山的蓝，不仅是种颜色,1.0,210,490,113.37371215483951,35.450816170015514
苏州乐园,4A,江苏省苏州市长江路397号,东方迪斯尼，适合全家游玩,0.78,30,488,120.44648537407494,31.965401385978513
宁波东钱湖水上乐园,,浙江省宁波市东钱湖旅游度假区环湖南路郭家峙村,水上游玩时尽观钱湖水光潋滟，山色空蒙,0.0,49,486,121.6550264291942,29.796566103726125
芭堤雅蒂芬妮人妖秀,,"464 Moo9, Pattaya 2nd Rd, Nongprue, Banglamung, Pattaya",东南亚地区真正的人妖秀表演,0.0,50,486,,
青岛海上观光,,青岛市南区西陵峡路9号小港海事处内友谊码头,欣赏这座海滨城市，别有一番风味,0.0,14,484,120.31508471422954,36.058486073439965
景山公园,4A,北京市西城区景山西街44号,俯看故宫绝佳位置,0.74,1,482,116.40313654650969,39.93162396881884
梨木台,4A,天津市蓟县蓟县下营镇船舱峪村北,”天津的神农架“和”北方的热带雨林“,0.72,59.2,482,117.36855614995244,40.04305488428025
山海关古城景区,,河北省秦皇岛市山海关区东头条胡同,中国古长城之精华，与嘉峪关遥相呼应,0.74,50,480,119.76450123256514,40.01519148400719
杭州海底世界,,浙江省杭州市西湖区南山路49号,西子湖畔畅游海底世界，了解神秘海洋生物,0.0,115,480,120.16225153952675,30.24005699687305
南京海底世界,,江苏省南京玄武区瓮仲路四方城8号,拥有180度透明玻璃构成的海底隧道,0.7,94,480,118.85176124121195,32.057539305464374
重庆园博园,4A,重庆市渝北区,一个集自然和人文景观为一体的生态公园,0.0,9,480,106.75379853119536,29.816264082426493
黄山翡翠谷,4A,安徽省黄山市黄山区汤口镇翡翠新村001幢,人间瑶池仙境，天下第一丽水,0.72,57.01,480,118.23040962786148,30.1130575520229
南湖梦幻岛,,四川省成都市双流县人民南路南湖度假风景区,去南湖梦幻岛的N大理由,0.0,95,478,104.10977345091125,30.628416052845846
清明上河园,5A,河南省开封市龙亭区龙亭西路5号,穿越宋朝，亲身体验清明上河图,1.0,58.6,476,114.34386925984691,34.81420923145642
南昌万达文化旅游城,,江西省南昌市新建区九龙大道南昌万达国际度假区,南昌万达城 嗨翻海陆空,0.0,74,476,115.81201196937752,28.62220369019372
万平口海滨风景区,4A,山东省日照市东港区海曲东路398号,日照“蓝天、碧海、金沙滩”的代表景区,0.9800000000000001,53.8,476,119.57007938463308,35.41438038698714
十渡聚龙湾玻璃栈道,,北京市房山区十渡镇十渡自然风景区停车场旁,梦寻生态山水，情归大美聚龙,0.0,34,474,115.59594262328847,39.646435988669204
壶口瀑布（山西）,4A,山西省临汾市吉县壶口镇,一年四季，欣赏不同时期瀑布恢宏,0.8800000000000001,5,474,110.47144007395283,36.108694301005194
重庆两江夜游,,重庆市渝中区朝天门4.5.6码头,不览夜景，未到重庆,0.0,108,474,106.59214621369674,29.568783575048656
松兰山,4A,浙江省宁波市象山县丹城镇,欣赏海滨风光，品赏可口海鲜,0.74,25,472,121.88524901067521,29.47096790800066
皇家海洋乐园,4A,辽宁沈阳沈抚新城高湾(沈阳世博园南门东7KM),海洋主题乐园，适合全家共同游玩的景区,0.9199999999999999,95,472,123.66082119395486,41.87165650250388
婺源篁岭,4A,江西省上饶市婺源县江湾镇篁岭村,自游行的绝佳选择,0.0,125,472,118.12523421860983,29.32801833693228
千佛山,4A,山东省济南市历下区经十一路18号,遥望齐州九点烟，一泓海水杯中泻,0.86,55,472,117.03966103848323,36.65149673217743
沈阳方特欢乐世界,,辽宁省沈阳市市沈北新区道义开发区盛京大街55号,东北地区第四代主题公园,0.0,228.3,472,123.41937706440785,41.97034365456255
杭州国际博览中心（G20峰会体验馆）,,浙江省杭州市萧山区奔竞大道353号,G20峰会体验馆，体现繁简有度的江南情怀,0.0,83,470,120.24695676442039,30.233247554194765
香港杜莎夫人蜡像馆,,香港特别行政区岛山顶道128号凌霄阁2楼,国内游客到港必游之地，和你的偶像合个影,0.76,135,468,114.16152553330751,22.274756384817042
北京·乐谷银滩景区,,北京市房山区三渡乐谷银滩景区,高山峡谷漂流、云端玻璃栈道、银河玻璃吊桥,0.0,45,468,115.6747001593158,39.62848277011961
长泰漂流景区,,福建省漳州市长泰县十里村1号,顺水漂流，波急浪涌、惊心动魂,0.0,168,466,117.82029360583496,24.593787791827594
白洋淀,5A,河北省保定市安新县,小兵张嘎的家乡，荷花和芦苇丛中的北国江南,0.9800000000000001,32.5,466,115.8867310100507,38.8782552166
下川岛,,广东省江门台山市川岛旅游度假区内,逃离尘都，一起去看海,0.8800000000000001,152,466,112.81353160561704,21.704741808445036
贵阳欢乐世界,,贵州省贵阳市白云区白云南路65号（原白云公园）,动漫主题游乐园带你来到畅游动漫的王国,0.0,130,466,106.64682836075006,26.67741878716537
黄帝陵,5A,陕西省延安市黄陵县城北的桥山颠,中华始祖黄帝轩辕氏的陵墓“天下第一陵”,1.0,3.8,466,108.95305831904487,35.628414247489644
泰安方特欢乐世界,4A,山东省泰安市泰山区东部新区明堂路北首,17个主题项目带你畅游高科技科幻主题公园,0.0,210,464,117.21112150678331,36.21214618360578
沈阳故宫,4A,辽宁省沈阳市沈河区沈阳路171号,观皇家宫苑，赏珍宝文物,0.7,2.5,464,123.46214999984178,41.80390188770286
济南方特东方神画,,济南市槐荫区吴家堡镇济齐路277号（西客站北侧）,体验非一般的文化盛宴，畅玩刺激的游乐项目,0.0,225,464,116.93933647853163,36.70060289555038
花舞人间,4A,四川省成都市新津县新蒲路梨花溪1号,体验如天堂般绚丽多姿的花海,0.0,45,462,103.80941776061279,30.37423982323093
中国泰迪熊博物馆,,四川省成都市温江区金马国际体育城中央商业公园,感受凝聚爱与梦想的泰迪熊文化,0.0,50,456,103.81646839534336,30.730254927008367
婺源江岭景区,,江西省上饶市婺源县溪头乡江岭梯田风光中心,梯田如链似带，高低错落，壮丽雄奇,0.0,166.1,456,118.0383072183203,29.460731884692127
新澳海底世界单馆,,河北省秦皇岛市海港区河滨路81号新澳海底世界,置身于神话般的海洋世界,0.0,78.5,454,119.56907676609067,39.912099515856525
十渡风景区,4A,北京市房山区十渡镇十渡村,远离城市喧嚣，感受自然之美,0.72,34,454,115.59621534614638,39.64418144481432
南京阅江楼,4A,江苏省南京市下关区建宁路202号,狮子山巅凭栏阅江，品六百年传奇之楼,0.78,30,452,118.75429433610779,32.099873908907455
长城号游船,,河北省秦皇岛北戴河区,平稳舒适，乐享水上之旅,0.0,38.7,452,119.47932079421292,39.854292584186524
阆中古城,5A,四川省阆中市阆水中路33号,张飞镇守的风水古城,1.0,100,450,105.9853184583509,31.577398201509766
温都水城养生馆,,北京市昌平区北七家镇郑各庄村王府街51号,各种亚热带植物掩映其间仿佛置身热带雨林,0.0,69,450,116.381547248595,40.118497944272335
亚龙湾,4A,海南省三亚市亚龙湾国家旅游度假区,湛蓝天宇映衬着碧波万顷，景象万千,1.0,90,448,109.65013564160743,18.23821057515121
海河桥,,天津市海河桥,海河上点缀着24座桥梁是一道亮丽的风景,0.0,68,448,117.32380992297425,39.07984717124986
芜湖新华联大白鲸海洋公园,,安徽省芜湖市鸠江区万春路与徽州路交界处,人与自然、人与海洋极地生灵和谐共生,0.0,45,446,118.52417116103845,31.369928697674972
北京汽车博物馆,,北京市丰台区南四环西路126号,感受汽车的无穷魅力，享受汽车的无限乐趣,0.0,21.9,444,116.30807853746109,39.83452427446777
沈阳森林动物园,4A,辽宁省沈阳市棋盘山国际风景旅游开发区内,置身于动物森林之中，和动物进行亲密接触,0.0,69.9,444,123.68925409046503,41.86224894877758
泰山皮影戏,,北京市泰山皮影体验馆|前门大街2号（大北照相馆东侧）,中华绝技“一人忙”，泰山皮影“十不闲”,0.0,48,440,116.40461256936092,39.90457837398484
上海动物园,4A,上海市长宁区虹桥路2381号,带你领略动物世界的纷繁多彩,0.72,38,440,121.37291440414542,31.196211390619435
涠洲岛游船,,广西壮族自治区北海市海城区银滩旅游区18号,日射涠洲廓，风斜别岛洋,0.0,153,440,109.1373169255485,21.425670171457483
芜湖方特水上乐园（三期）,,安徽省芜湖市鸠江区赤铸山东路华强园,八大区域带你畅游水上主题乐园,0.0,60,436,118.47861915671272,31.359606495501453
鸡足山,4A,云南省大理州宾川县以西约30公里处,赏世界美景，登第一佛山,0.7,80,434,100.62753770311323,25.875307433534083
香港昂坪360缆车,,香港特别行政区离岛大屿山地铁东涌站,360度无死角全方位的美景，你还在等什么,0.0,37,434,114.0604101451368,22.3322467733121
深圳小梅沙海洋世界,,广东省深圳市盐田区小梅沙海洋世界,一天穿越四大洋,0.7,145,432,114.33525861747346,22.61060018642742
太平山顶,,香港特别行政区香港岛山顶道118号,登临香港岛之巅，欣赏醉人夜景,0.86,31,432,114.16116786488409,22.274225646686148
日光岩,,福建省厦门市思明区晃右路晃岩路56-64号,登临日光岩，看云天近在咫尺,0.86,98.1,432,118.07458219615782,24.448854559726378
张裕瑞那城堡酒庄,,陕西省咸阳市渭城区渭城镇,浪漫意大利，梦幻酒城堡,0.0,145,430,108.79095242786472,34.38129926957247
西双版纳原始森林公园,4A,云南省西双版纳傣族自治州距景洪市8公里处213国道旁,独特的原始热带雨林自然风光融合民族风情,0.8,48,428,101.00425231613885,22.42346446399933
汉秀剧场,,湖北省武汉市武昌区楚河汉街的东端,一生必看的舞台秀,0.0,171,428,114.34485380268585,30.56575598819875
三明水上乐园,,福建省三明市沙县三明生态新城旁,水上游乐设施先进，设备数量多,0.0,50,428,117.81884600477495,26.44650590508846
北京动物园,4A,北京市西城区西直门外大街137号,百余种动物，让你离自然更近,0.72,65,428,116.34588278252602,39.944435486484146
大昭寺,5A,西藏拉萨市城关区中心八角街,西藏辉煌的一座吐蕃时期的建筑,0.9199999999999999,115,426,91.14036403567333,29.656054198170544
白石山世界地质公园,5A,河北省保定市涞源县城南15公里处白石山景区,壮观悬空玻璃道，抗日少年英雄山,0.74,140,426,114.6716419861916,39.24496074616257
罗浮山,5A,广东省惠州市博罗县鹅岭北路11号,一个难得的洞天福地,0.9,48,424,114.40234786558231,23.085610666896702
新加坡滨海湾花园,,18 Marina Gardens Drive Singapore 018953,气势磅礴的云雾林，绚烂的灯光秀，精彩纷呈,0.0,12,424,121.44152391936898,31.22251597417351
云南映象,,云南省昆明市盘龙区东风西路132号云南艺术剧院内,既有传统之美，又有现代之力的舞台新作,0.0,153,424,102.70977517478572,25.045604116310475
夜游湄南河游轮,,"river city shoppingcomplex,room122-126 level1.soi chareokrung 30 Sampantong",体验湄南河的另一种风情,0.0,10,424,113.6471732276441,34.80386984894806
天山大峡谷,5A,新疆乌鲁木齐市乌鲁木齐县板房沟乡灯草沟村,丝绸之路上的瑰宝，游牧文化的活博物馆,0.0,72,422,87.38173356143797,43.43975924371742
古文化街码头,,天津市南开区古文化街,古文化街的入口之一,0.0,135,422,117.19918124791079,39.14974639943818
大理古城,,云南大理市下关,在静谧中悠远，美得不经意却那么沁人心脾,0.96,26,420,100.21920895421849,25.693966622473024
九乡风景名胜区,4A,云南省昆明市宜良县九乡风景名胜区,九乡溶洞九十九，数完溶洞白了头,0.72,76,418,103.1928154871989,24.944907933143156
清明上河图,,浙江省金华东阳市横店镇清明上河图,一朝步入画中，仿佛梦回千年,0.0,144.6,418,120.31649991035508,29.147323028949483
乐和乐都主题公园,,重庆永川区卫星湖街道凤龙路999号,您和孩子开怀大笑的好去处,0.0,310,416,105.91683649582372,29.297300002427775
牛鱼嘴,,广东省清远市清城区,春赏禾雀花，夏游清碧溪，秋观古枫叶,0.74,63,414,113.11458528252464,23.625855965259543
凌霄阁摩天台428,,香港特别行政区香港岛山顶区太平山上观景台,于香港岛山顶道俯瞰太平山夜景,0.0,31.9,414,114.16394161580637,22.26871420880123
天门山索道,,湖南省张家界市永定区大庸路，官黎坪天门山索道下站。,壮观气派、通透典雅,0.0,232,414,110.49261119437031,29.117974844161502
刘少奇纪念馆,,湖南省长沙市宁乡县花明楼镇炭子冲村,与名人对话，传播红色文化,0.0,10,414,112.65389337776261,28.03846238989335
避暑山庄,5A,河北省承德市双桥区丽正门大街20号,古代帝王宫苑，清代皇帝避暑处理政务地,1.0,5.2,410,117.9458210677386,40.98712649924941
渔岛,,河北省秦皇岛市昌黎县黄金海岸沿海公路83公里,渔岛全新升级，好莱坞G秀震撼上演,0.0,48,408,119.33336887597092,39.73116827190508
海洋奇梦馆,,广东省深圳市南山区欢乐海岸内,海洋奇梦馆，带你寻找童年的海洋梦,0.0,50,406,113.99952359057224,22.533827146797243
厦门海底世界,,福建省厦门市思明区鼓浪屿龙头路2号,探寻你不知道的海底世界,0.72,80,406,118.0778298454568,24.45206509148708
泸沽湖,4A,云南丽江市宁蒗彝族自治县东北部永宁乡,翠绿如画，身临其境，水天一色，清澈如镜,0.9199999999999999,65,406,100.66797089940289,27.76299601462131
冠豸山,4A,福建省龙岩市连城县豸峰街44号,“北夷南豸，丹霞双绝”,0.0,99,400,116.79250340163098,25.71794712076195
仰口游览区,,山东省青岛市崂山区仰口风景游览区,九宫八观七十二庵，道教全真天下第二丛林,0.0,30,400,120.67788621625756,36.24166821344085
十渡天河谷,,北京市房山区十渡镇西庄村“民俗风情苑”旅游度假风景区内,拥有十渡誓言玻璃栈道和高山滑水的完美结合,0.0,40,400,115.58856066211608,39.64011598297419
威海神游海洋世界,,山东省威海市环翠区华夏路华夏城北侧,颠覆传统海洋世界单一展览的模式,0.0,78.9,398,122.12935711041025,37.43009134080865
呀路古热带植物园,3A,北京市大兴区长子营镇104国道朱庄北口北行200米,走进北京的西双版纳感受夏季,0.0,3,398,116.46892125561638,39.73874726467032
泉城海洋极地世界,,山东省德州市齐河县黄河国际生态城旅游路8号,美人鱼穿梭在五彩斑斓的海洋王国里,0.0,200,396,116.84681183783798,36.74916412507776
怪楼奇园,3A,河北省秦皇岛市北戴河区联峰路与百花路交叉口向西180米,提供了一个游历、释放好奇心理的场所,0.7,18,396,119.5051983681745,39.83198135567351
澳门新濠影汇酒店,,澳门路氹地比邻横琴的莲花大桥口岸,澳门新地标,0.0,50,394,113.55617011644104,22.11916602967017
金顶,5A,四川省乐山市峨眉山市峨眉山景区内,峨眉山的主峰,0.0,55,394,103.44295859432349,29.567859733747095
遇龙河,,广西省桂林市阳朔县遇龙河景区,人称“小漓江”，不是漓江胜似漓江,0.86,121,392,110.4483956368952,24.77245756039325
大金湖,5A,福建省三明泰宁县大金湖世界地质公园内,到天下第一湖山领略丹霞地貌,1.0,49,390,117.08819754559121,26.866647980898115
阳朔世外桃源景区,4A,广西壮族自治区桂林市阳朔县白沙镇五里店桂阳公路,远方群山，村树含烟，阡陌纵横，屋宇错落,0.7,60,390,110.4009519413168,24.860840636991327
又见平遥,,山西省晋中市平遥县顺城路154号又见平遥剧场,又见系列项目在中国北方地区的第一个项目,0.0,228,390,112.1792377436467,37.204745983461414
黄浦江游览（十六铺码头）,,上海市黄浦区中山东二路481号B1层（十六铺码头一区）,夜游黄浦江，霓虹交错，赏魔都繁华景象,0.0,96.01,390,121.50277614358437,31.2350536885094
南京中国科举博物馆（江南贡院）,,江苏省南京市秦淮区夫子庙金陵路1号,中国科举制度场所，科举文物史料机构,0.72,19,390,118.79613205376003,32.028611929352785
厦门观音山梦幻海岸,,福建省厦门市思明区观音山商业街17号（观音山沙雕文化公园旁）,好吃好玩好景，你还有不来的理由,0.0,63.9,388,118.20394057365473,24.500784361161195
富国海底世界,4A,北京市朝阳区三里屯工体南路工人体育场南门,利用高新技术让你与鱼类亲密接触,0.7,68,386,116.45271089431573,39.93286234625016
九如山风景区,4A,山东省济南市历城区西营镇葫芦峪村,生态观光，休闲娱乐，游憩度假为一体,0.7,8,386,117.30547647319402,36.49304087540382
马蹄寺,4A,甘肃省张掖市肃南县大都麻乡,集石窟艺术、祁连风光民族风情于一体,0.76,67,386,100.49635585564283,38.44442749594747
海思蓝潜水中心,,海南三亚市榆亚路鸿洲时代海岸鸿洲游艇会航海体验中心,海底世界奇妙无穷，与鱼群共舞,0.0,1,384,109.51838045385809,18.23556601243603
太平洋海底世界,3A,北京市海淀区西三环中路11号中央电视塔下,漫步海底，欣赏五彩缤纷的海底生物,0.7,66.1,384,116.31292927492677,39.9247528667126
普吉岛西蒙人妖表演秀,,"Patong, Kathu District Phuket 83150",享用视觉盛宴,0.0,8,384,,
伪满皇宫博物院,5A,吉林省长春市宽城区光复北路5号,伪满洲国傀儡皇帝爱新觉罗·溥仪的宫殿,0.9199999999999999,3,384,125.35555242161598,43.91055669875915
镇江金山,5A,江苏省镇江市润州区金山路62号,法海岂能懂爱，白娘娘大发雌威之地,0.0,58.1,380,119.42217077193939,32.219745241614405
花鼓灯嘉年华,,安徽省蚌埠市蚌山区燕山路768号花鼓灯嘉年华景区,全家总动员，来一场园游会吧,0.0,23.5,380,117.35127800253618,32.907281632455316
珠江夜游大沙头码头,,广东省广州市越秀区沿江东路466号,水上的白云机场,0.0,55,380,113.29186565593957,23.118670745002074
龙宫风景区,5A,贵州省安顺市镇宁县龙宫镇,览龙宫知天下水洞，荡轻舟临人间仙境,0.72,150,378,105.89685090411548,26.10322320314691
泉城广场,,山东省济南市历下区泺源大街69号,市民休憩盘桓之胜地,0.0,55,378,117.03123750824152,36.66886900066706
左海海底世界,,福建省福州市铜盘路29号左海公园内,寻宝、探秘尽在左海海底世界,0.0,69.9,378,119.29157438715028,26.107427653117064
静园-末代皇帝溥仪旧居,3A,天津市和平区鞍山道70号,津城洋楼，醉美静园,0.0,15,378,117.19578264375961,39.12903130008767
武功山,4A,江西省萍乡市芦溪县,翘首盼君来，风光任君览,1.0,58.5,376,114.07000665468313,27.578022564844794
狼巷迷谷,4A,安徽省滁州市凤阳县殷涧镇城东南30公里处,谷内景观千姿百态，如同天然迷宫,0.74,64.5,372,117.62970766420123,32.730376948959936
竹泉村,4A,山东省临沂市沂南县铜井镇竹泉村,竹泉美景胜江南，何必舍近去求远,0.0,66,372,118.44431102596377,35.653855292419195
柯岩风景区,4A,浙江省绍兴市绍兴县柯岩大道558号,奔跑吧兄弟拍摄地,0.82,60,372,120.48397875961984,30.051170927490535
灵玲国际马戏城,,福建省厦门市集美新城杏锦路和杏林湾路交叉口北侧,以马戏表演为主题集合休闲娱乐的度假区,0.0,77,370,118.08061107836566,24.608178610983167
安仁古镇,,四川省成都市大邑县安仁镇,建筑风格中西结合，号称川西建筑文化精品,0.0,32,370,103.63042442569602,30.514075950744417
何园,4A,江苏省扬州市广陵区徐凝门大街66号　,晚清第一园，扬州园林的代表,0.82,20,368,119.4562302184859,32.39151943719182
广州花城汇MAG环球魔幻世界,,广东省广州市花城汇,汇集了全球各种酷炫游乐科技,0.0,127,366,113.3311724184655,23.127293549704028
五台山,5A,山西省忻州市五台县台怀镇,兼有汉地和藏传佛教的佛教道场,1.0,145,366,113.60081740697177,39.007170101701185
罗山湖玛雅水上乐园,,广西省桂林市临桂县罗山水库旁,打造欢乐，激情，香飘四溢的水城景观空间,0.0,42.9,366,110.0607872019642,25.2520012592419
夫子庙大成殿,,江苏省南京市秦淮区贡院街152号,是供奉著名思想家、教育家孔子的庙宇,0.7,12,366,118.79539272047785,32.026254274603765
桃源仙谷,4A,北京市密云县石城乡南石城村,"森林茂密,气象万千,以湖、瀑、潭而著称",0.7,34,364,116.82827103758672,40.54797666836304
大同方特欢乐世界,,山西省大同市御东新区南环东路与太和路交汇处方特欢乐世界,神奇的梦幻乐园，给您震撼的玩乐体验,0.0,155,364,113.36948885323015,40.0691924139638
瞻园,,江苏省南京市秦淮区瞻园路128号,"瞻望玉堂,如在天上",0.76,17.9,360,118.79184394120473,32.02645312550271
丽江虎跳峡,,云南省丽江市玉龙县龙蟠乡,"寻梦丽江,听虎跳峡怒吼",0.0,55,360,100.07791745304606,27.098535824095727
龙口南山旅游区,5A,山东省烟台龙口市东江镇南山旅游景区,福寿南山，养心天堂,0.72,4.9,360,120.52358037836612,37.63557765467627
千岛湖中心湖,,浙江省杭州市淳安县千岛湖景区内,乘船登岛，领略千岛湖的山水锦绣,0.0,300,360,119.15867718360646,29.60076306591475
滕王阁,4A,江西省南昌市东湖区仿古街58号,落霞与孤鹜齐飞，秋水共长天一色,1.0,45,360,115.88869510955011,28.68662147776157
中科院西双版纳热带植物园,5A,云南省西双版纳州勐腊县勐仑镇(近野象谷),四千余种来自世界各地的热带植物栖居于此,0.8400000000000001,1,360,101.25529530170606,21.941287002272468
杭州野生动物园,4A,浙江省杭州富阳市杭富路九龙大道1号,多功能综合性生态公园,0.7,209,358,119.98985074388324,30.152797130479478
南湾猴岛,4A,海南省陵水县黎族自治县新村镇南湾半岛,碧水蓝天，猴趣横生,1.0,142.5,358,109.97796731105818,18.418184184579538
宝泰隆泰山地下大裂谷,,山东省泰安市泰山区邱家店镇宝泰隆旅游区,大自然的鬼斧神功成就的震撼人心的的奇观,0.0,54,356,117.2510608479776,36.167156227884604
云水谣土楼群,,福建漳州南靖县云水谣古镇,幽长古道，百年老榕，神奇土楼，灵山碧水,0.0,84.9,356,117.10049354422128,24.677461097224437
罗浮山启明星温泉,,四川省绵阳市安县罗浮山旅游区,四季如画，背倚群山，远离喧嚣，感悟自然,0.0,50,356,104.35391545420993,31.587904853475656
香港迪士尼乐园餐券,,香港迪士尼乐园,在玩耍的同时享受美食,0.0,66,354,114.05573173411017,22.3108835078335
三峡大瀑布,4A,湖北省宜昌市夷陵区黄花乡黄花场村,天然瀑布群和峡谷丛林风光,0.7,24,354,111.33050022686164,30.93043134034877
金石滩旅游度假区,5A,辽宁省大连市金州区丹枫路金石滩国家旅游度假区,凝固的动物世界，天然的地质博物馆,0.9199999999999999,180,350,122.02351306805247,39.09719161680248
广州塔摩天轮,,广东省广州市海珠区阅江西路222号广州塔塔顶平台,旋转观光舱，各个角度观赏广州迷人夜景,0.0,149,350,113.33099508307653,23.112234255549392
桂林乐满地主题乐园,5A,广西壮族自治区桂林市兴安县志玲路,以浪漫与快乐为名,0.7,33,348,110.68260320582061,25.597001607992542
沂蒙山银座天蒙旅游区,,山东省临沂市费县北部（距费县县城约25公里）,观山望海，体验雄伟人行索桥,0.0,40,348,117.98583765074815,35.25497079311155
西溪湿地（龙舌嘴入口）,5A,浙江省杭州市天目山路延伸段龙舌嘴入口,一曲溪流一曲，找寻江南春色,0.0,45,346,120.0610195476742,30.259208341451522
南风古灶旅游区,4A,佛山市禅城区石湾镇高庙路6号南风古灶景区,载入世界吉尼斯记录，被誉为“活的文物”,0.0,18.4,346,113.0839875490623,23.010376695143997
杭州烂苹果乐园,,浙江省杭州市萧山区风情大道2555号休博园内（杭州乐园对面）,全室内高科技亲子乐园,0.0,140,346,120.13580929521314,30.27633281076934
南昌万达电影乐园,,江西省南昌市九龙湖新区的南昌万达城内,设《钟馗送亲》和《飞跃江西》两个主题剧场,0.0,55,346,115.89352754583604,28.689578000141147
天坛公园,5A,北京市东城区天坛内东里7号,探寻古代皇帝祭天仪式的奥秘,0.8,3.5,344,116.42430170229137,39.88955053925809
明孝陵,5A,江苏省南京市玄武区紫金山南麓独龙阜玩珠峰下,朱元璋和马皇后合葬于此,0.86,0.9,344,118.85060374491826,32.07657638667517
五指山红峡谷漂流,3A,海南省五指山市南圣镇五指山红峡谷文化旅游风景区,体验水头浪尖上的惊险与刺激,0.0,168,342,109.59925423145368,18.744415953478196
雷峰塔,4A,浙江省杭州市西湖区南山路15号,法海你不懂爱!雷峰塔会掉下来,0.78,92,342,120.15721411890489,30.23643415021586
我们出海吧儿童乐园,,北京市朝阳区左家庄东街静安市场二层,走进了自己童年的梦幻王国,0.0,10.9,342,116.45276647247765,39.962327119648236
海河游船,,天津市南开区古文化街码头,为海内外游客带来高品质海河旅游体验,0.0,64,338,117.20117317929439,39.15063207599372
杨堤烟雨,,广西桂林阳朔县杨堤乡,青山、秀水、飞瀑、浅滩,0.0,135,338,110.45932870125344,24.999736624358768
马仁奇峰,4A,安徽省芜湖市繁昌铜陵南陵三县交界处,素有“皖南张家界”之美誉,0.76,61,338,118.38410842322828,31.36601978754301
本溪水洞,5A,辽宁省本溪市本溪满族自治县谢家崴子村,石奇，松秀，大气磅礴的“北国小黄山”,1.0,155,338,124.10403253563982,41.30865099134996
威海华夏城景区,5A,山东省威海市环翠区威海经济技术开发区华夏路1号,自然与科技一体的新型生态旅游度假圣地,0.7,50,336,122.14624461350601,37.43541689687119
洞天仙境,,广东省清远英德市九龙镇英西峰林景区内,在九龙，观洞天仙境，九龙在渊，福地洞天,0.0,54.01,336,113.3231689849196,24.225680391225104
天堂岛海洋乐园,,四川省成都市武侯区天府大道北段1700号环球中心（地铁1号线锦城广场站）,世界上超大的室内人造海洋,0.0,90,336,104.07447125618326,30.574936903376365
合肥万达文化旅游城,,安徽省合肥市滨湖新区环湖北路与包河大道交口西北角,极限的尖叫挑战、精彩的演艺节目,0.0,33,336,117.32599865153574,31.710849998446903
金刀峡,4A,重庆市北碚区金刀峡镇小塘村1号,中国第一险峡，古老而神奇的峡谷风情,0.72,45,334,106.6355595508514,30.037230348387332
武汉两江游览,,湖北省武汉市江岸区沿江大道,美得让人无法呼吸,0.0,70,334,114.3563347561545,30.672185368374016
蓬莱海洋极地世界,4A,山东省烟台市蓬莱市海港路88号,千种海洋生物大聚会，伴你神奇海洋探秘,0.78,118,332,120.75331680237102,37.831489070028546
希夷之大理,,云南省大理白族自治州大理市洪武路188号北吉祥,阳春白雪的视听盛宴，触动本真的浪漫情怀,0.0,9,332,100.17469971187889,25.708088901560053
京杭大运河,,浙江省杭州市下城区武林门码头（环城北路208号坤和中心裙楼旁）,流动的奇迹,0.0,90,332,120.16810058995654,30.279500190885532
定陵,,北京市昌平区十三陵特区明十三陵,明十三陵中被开发的地下宫殿,0.72,53.8,332,116.23681835354209,40.271398171709635
那拉提旅游风景区,5A,新疆维吾尔自治区伊犁哈萨克自治州新源县,“塞外江南”给你群山俊秀，绿草如茵的美景,1.0,89,330,83.5581501882576,43.37695141809331
宝墨园,4A,广东省广州市番禺区沙湾镇紫妮村,华夏文化浓缩地之一,0.72,46.8,330,113.35391171540856,22.91314248523458
寒山寺,4A,江苏省苏州市金阊区寒山寺弄24号,姑苏城外寒山寺，夜半钟声到客船,0.8800000000000001,19,330,120.57479115854005,31.31616985700029
神雕山野生动物自然保护区,,山东省威海市荣成市成山镇西霞口村东北处,体验野性、回归自然,0.0,165,330,122.6370719206293,37.419189250631234
昆明世界园艺博览园,5A,云南省昆明市盘龙区世博路10号,不出国门，欣赏世界园艺,0.86,78.1,326,102.76187663743185,25.08175360369618
蜀风雅韵川剧变脸,,四川省成都市青羊区琴台路23号,品味四川，亦真亦幻木偶戏,0.0,150,326,104.0517540036499,30.665893997733694
满洲里国门,5A,内蒙古呼伦贝尔满洲里市西部中俄边境处,驰骋内蒙大草原，山水湖泊吸氧之旅,0.74,77,326,117.60368677619397,49.500031717154286
横店秦王宫,,浙江省金华东阳市横店镇万盛南街58号横店影视城,电视剧里的皇宫,0.7,155,326,120.32346727658313,29.15761975325314
青岛德国监狱旧址博物馆,3A,山东省青岛市市南区常州路23号,一座古堡式监狱建筑群的特色博物馆,0.0,20,326,120.33518499979529,36.06721589150798
茱萸湾,4A,江苏省扬州市广陵区湾头镇茱萸湾路888号,一座半岛生态型动植物园,0.7,27,322,119.49381081422463,32.44537381721829
圣蓝海洋公园,,河北省秦皇岛市昌黎县s364,中国北方大型海洋主题公园之一,0.0,56.5,320,119.09462149738174,39.63802116472844
乔家大院,5A,山西省晋中市祁县乔家堡村,一栋带有历史印记的宅院,0.9400000000000001,134,320,112.44303101629858,37.4119359976842
平山湖大峡谷,,甘肃省张掖市甘州区城北56公里处,比肩张家界的丝路之路新发现,0.0,95,320,100.52207864991932,39.010620607402736
两坝一峡,,湖北省宜昌市伍家岗区沿江大道142号三峡游客中心,保持原汁原味的长江三峡峡谷风光风貌,0.0,68,320,111.31202121924979,30.686504741940936
天堂明堂-隋唐洛阳城国家遗址公园,,河南省洛阳市老城区中州中路与定鼎路交叉口处,展现无以伦比的富丽堂皇,0.0,55,320,112.44824700658124,34.72010776330142
北京蓝天城,,北京市朝阳区朝阳北路101号朝阳大悦城,国际化的互动教育平台，青少年的第二课堂,0.0,160,318,116.52448891902222,39.92999682028342
三亚湾,,海南省三亚市三亚旅游区三亚湾路,滨海大道依湾绵延，椰树成林构成一道画廊,0.86,29.9,318,109.45493391543847,18.291948852997592
世茂云上厦门观光厅,,福建省厦门市思明区大学路世茂海峡大厦B塔,俯瞰美丽厦门，远眺台湾海峡,0.0,50,316,118.09622165454672,24.442195668147058
西夏陵,4A,宁夏回族自治区银川市西夏区贺兰山东麓,赏夏陵冬韵，探神秘古国,0.9800000000000001,5.2,316,106.05555591605693,38.55328059311017
天目湖旅游度假区,5A,江苏省常州市溧阳天目湖镇迎宾大道,回归安宁，感受优雅,1.0,79.5,316,119.45367448541168,31.326860522585477
盘山,5A,天津市蓟县官庄镇北15公里处,早知有盘山，何必下江南,0.8,119,314,117.31692805027588,40.17175355759433
天山海世界米立方,4A,天津市津南区天津市津南区小站镇津歧路与盛塘路交汇处,恒温水上欢乐，满足你爱水的天性,0.0,25,314,117.45105701397209,38.930204822011014
欢乐海岸,,广东省深圳市南山区白石路东8号欢乐海岸,屌丝或是高富帅，都有你的栖息之地,0.0,50,312,113.99816988998273,22.53057685794141
香格里拉虎跳峡,4A,云南省迪庆藏族自治州香格里拉县虎跳峡镇,峡内礁石林立，有险滩21处，景色壮丽,1.0,60,312,100.05624444474297,27.192684248840052
留园,5A,江苏省苏州金阊区阊门外留园路338号,苏州园林中代表清朝艺术风格的私家园林,0.78,52.5,312,120.59948602616208,31.321247862658947
东方盐湖城,,江苏省常州市金坛区薛埠镇访仙路9号,山中桃源，乐道天下,0.0,30,310,119.42356413900576,31.738849924140677
梅峰岛,,浙江省杭州市淳安县千岛湖镇千岛湖中心湖区,千岛湖的标志景观,0.0,266,310,118.98652789200327,29.611540360381497
梦回大唐,,陕西省西安市雁塔曲江新区芙蓉西路99号大唐芙蓉园内,绚丽的歌舞带您穿越回千年前的盛唐,0.0,140,310,108.98029487196862,34.21878824042787
黄姚古镇,4A,广西壮族自治区贺州市昭平县,诗境家园，电影《面纱》拍摄地,1.0,36.5,308,110.97690768696485,24.108072861819117
东平国家森林公园,4A,上海市崇明县北沿路2188号,在这里，你只需要深呼吸,0.7,54.3,308,121.5353975435439,31.633564930802045
珠江夜游海心沙码头,,广东省广州市天河区珠江新城临江大道海心沙码头（海心沙亚运会主会场旁）,古色古香的造型吸引了不少市民驻足留影,0.0,56,308,113.33346340563398,23.11629459593351
狼牙山,4A,河北省保定市易县狼牙山镇东西水村,“狼牙山五壮士“英雄山，著名爱国教育基地,0.8,70,306,115.19006459180146,39.127706942542375
长鹿休闲度假农庄,5A,广东省佛山市顺德区伦教三洲建设东路8号,体验岭南历史文化，感受农家生活情趣,0.72,73,306,113.27763827620944,22.884824092243807
三亚宋城浪浪浪水公园,,海南省三亚市迎宾路333号,体验风靡全球的游乐设施,0.0,120,304,109.53706819173205,18.296081291679297
仙女湖,4A,江西省新余市渝水区仙女湖,仙女下凡之地，原始森林神秘诱人,1.0,136,304,114.80382771680388,27.73525425138346
重庆冰巴水世界,,重庆巴南区巴滨路李家沱长江大桥旁,适合各年龄阶段老少皆宜的水上乐园,0.0,198,304,106.54549092044041,29.47186909928848
公主号游轮,,河北省秦皇岛市新澳海底世界东800米处码头,在海上，好似公主一般，缓慢游行驶向远海,0.0,34.8,304,119.57566052083435,39.91175866967051
野三坡,5A,河北省保定市涞水县三坡镇,北方的小桂林,1.0,65,304,115.46285199655834,39.677372285927405
抚顺热高乐园,,辽宁省抚顺市望花区高湾经济开发区丰远路1号（近抚顺西站）,"合家共游的度假胜地,每一个人的梦幻世界",0.0,95,304,123.77302377418701,41.87860630066019
大连香洲旅游度假区,4A,辽宁省大连市瓦房店市谢屯镇,将壮观诠释到完美，将梦想展示给世界,0.0,118,304,121.54715803491553,39.4586883867921
青岩古镇,5A,贵阳市花溪区交通路240号,由土城而渐成街巷纵横错综之石城,0.82,58.9,302,106.69708491587943,26.33992599732606
纳木错,,西藏拉萨当雄县和那曲地区班戈县之间,传为密宗本尊胜乐金刚的道场,1.0,118,302,89.1379816840313,31.36731540271471
魅力湘西,,湖南省张家界市武陵源区桂花路20号,一台原汁原味的湘西文化大餐,0.74,320,302,110.55190089321337,29.354486437566035
敦煌影视古城,4A,甘肃省酒泉市敦煌市西南18公里处的大漠戈壁滩,中国西部影视拍摄基地,0.72,33,302,94.15804176645081,40.26501276690911
建川博物馆聚落,4A,四川成都大邑县安仁古镇迎宾路（近金桂公馆酒店）,收藏丰富的民间博物馆,0.7,54.8,300,103.6321565293973,30.512117624171427
观音峡,4A,云南省丽江市东南17公里处的七河乡,秀丽峡谷风光，古朴纳西风情,0.7,70,300,100.27903340530082,26.753901123953632
野人谷漂流,,广西省防城港防城区野人谷景区,山河雄峻、奇石丛林、溪水湍急，漂流刺激,0.0,88,300,108.02974018356831,21.764841822260863
额尔古纳湿地景区,,内蒙古额尔古纳市拉布大林镇的西北郊,亚洲第一湿地,0.0,59,300,120.20393728109946,50.244521404191545
梅山龙宫,4A,湖南省娄底市新化县油溪乡高桥村,洞内通风良好，空气清新,1.0,93,300,111.29511791098899,27.95380140676973
乐和乐都野生动物世界,4A,重庆永川区近郊卫星湖街道凤龙路999号野生动物园,突出“回归自然”的主题,0.0,54,300,105.91683649582372,29.297300002427775
水洞沟旅游区,5A,"宁夏银川市灵武市临河镇水洞沟旅游景区（西距银川市19公里,距机场11公里）",古人类、古长城遗址地,0.82,7,300,106.48471902078677,38.355114247475974
武夷山九曲溪,,福建省南平武夷山市武夷山风景区南部,幽兰生谷香生径，方竹满山绿满溪,0.78,115,298,117.94267927308434,27.660404180276803
北海海洋之窗,4A,广西壮族自治区北海市银海区四川南路中段,梦幻海洋之旅，这回可以说走就走了哇,0.78,98,298,109.12858896765711,21.45112284966847
大沽口炮台遗址,,天津市滨海新区东炮台路1号（天津大道与海滨大道交口）,首都的海上门户，近代海防遗址之一,0.74,22,298,117.71437772223076,38.98330981397832
横店梦幻谷,,浙江省金华东阳市横店影视城内,集娱乐、夜间影视体验、自然风貌于一体,0.0,265,298,120.28068259402217,29.185751379508492
泉眼温泉,,广东省中山市三乡镇泉眼村兴泉路1号,泉区布局幽闲浪漫，有“浪漫温泉”之美称,0.8400000000000001,94,298,113.46575848757091,22.35784677864355
杭州岳王庙,,浙江省杭州市西湖区北山路80号,还我河山，精忠报国,0.74,22,296,120.14147768382858,30.258697463635475
仙螺岛,,河北省秦皇岛市抚宁县南戴河旅游度假区环海路1号,被喻为“海上童话”,0.72,40,296,119.43973710564462,39.80033544972974
古窑民俗博览区,5A,江西省景德镇市昌江区瓷都大道古窑路1号,探索中国千年陶瓷文化的脉络,0.0,84,296,117.19100570874912,29.28884660736156
地下长河,4A,浙江省兰溪市灵洞乡洞源村地下长河景区,冬暖夏凉，舟行其中，宛若置身仙境,0.7,53.2,296,119.54333070454645,29.21093503182713
福建天门山,4A,福建省福州市永泰县葛岭镇溪洋村天门山景区,水流清澈，两岸怪石嶙峋，风景如画,0.7,14.6,296,119.02516361672023,25.82762056542558
七里山塘,4A,江苏省苏州市金阊区广济路218号,弯月般的石桥，白墙灰瓦的古宅,0.74,43.1,296,120.60791518159289,31.32522025453779
敦煌盛典,,甘肃省敦煌市敦月路敦煌山庄院内200米,敦煌独特的人文历史与民俗风情,0.0,198,296,94.67662322156106,40.112585224523365
厦门园博苑,,福建省厦门市集美区杏前路319国道,世界上独一无二的水上大观园,0.7,48,294,118.09556827562747,24.572987324688455
安吉将军关探险漂流,,浙江湖州市安吉县章村镇郎村将军关探险漂流集散中心,优美风光与漂流活动，动静结合，相得益彰,0.0,124,294,119.3845263057806,30.44505285048523
韶山游客换乘中心,,湖南省湘潭市韶山换乘中心,绿色环保出行，愉悦便利畅游,0.0,55,294,112.53309503972456,27.927332779842192
阳朔十里画廊,,广西省桂林市阳朔县月亮山,沿路山峦奇特，如诗如画，令人如痴如醉,0.0,10,292,110.53565812554683,24.89063700019169
京娘湖,4A,河北省邯郸武安市京娘湖,赵匡胤千里送京娘，山清水秀川谷深幽,0.9199999999999999,59.9,290,113.95437542614961,36.90226805205924
苏州乐园森林水世界,4A,江苏省苏州市高新区山神湾路苏州乐园森林水世界,东南亚风情水上乐园，体验别样风情,0.0,78,290,120.47673412151248,31.34595038269097
趵突泉公园,5A,山东省济南市历下区趵突泉南路1号,济南72名泉的第一泉,0.9400000000000001,55,290,117.02419999962204,36.667489913889085
黄花城长城,3A,北京市怀柔区九渡河镇西水峪,蛟龙千寻戏碧水，探古觅幽有奇观,0.7,39,288,116.32011402839564,40.41825794773092
恐龙园侏罗纪水世界,,江苏省常州市新北区汉江路1号,恐龙主题水公园,0.0,60,288,120.0080328552359,31.829193472716423
哈尔滨北方森林动物园,4A,黑龙江省哈尔滨市阿城区哈牡公路鸽子洞地区,让游客近距离接触这个神奇的动物王国,0.0,67.5,288,127.08807642766025,45.434576523770346
乐岛海洋王国（乐岛海洋公园）,4A,河北省秦皇岛市山海关区龙海大道148号,蓝天、碧海、金沙，给你不一样的海洋公园,0.72,75,286,119.76187327033809,39.96107166938117
幻多奇乐园,, 99 Moo 3 Kamala Kathu Phuket 83150 Thailand,可以在这里观看精彩的表演,0.0,8,286,,
株洲方特梦幻王国,,湖南省株洲市云龙示范区华强路1号,创造充满幻想和创意的神奇天地,0.0,195,286,113.17446420357336,27.934854931885955
太姥山,5A,福建省宁德福鼎市太姥山,海上仙都,1.0,120,286,120.18869451084701,27.14037467834656
千岛湖九龙溪漂流,,浙江省杭州市淳安县左口乡显后村千岛湖,四面青山两岸古朴，浙西魅力峡谷漂流,0.0,45,286,119.05814885784903,29.729797200243727
喀拉峻,5A,新疆维吾尔自治区伊犁特克斯县的南部天山之中,未经开放的纯天然牧场，没有任何旅游设施,0.0,160,286,82.0068523555032,42.92556351509277
梵净山,,中国贵州铜仁地区江口县梵净山,独一无二，惊世骇俗,1.0,110,286,108.70329935642678,27.920476717592912
瑶琳仙境,4A,浙江省杭州市桐庐县瑶琳镇桃源村瑶淋路,别光抬头看景，潺潺清泉里倒影更迷人,0.7,109,286,119.54148713011503,29.897065606023393
南岳大庙,,湖南省衡阳市南岳区北支街2号,“江南第一庙”、“南国故宫”,0.74,4.5,286,112.74075862224329,27.249024457792075
漓江三星级游船,,广西壮族自治区桂林市灵川县,岩溶山水游览区,0.0,368,286,110.41812911350989,25.381008804926665
瑶里,4A,江西省景德镇市浮梁县087县道瑶里风景区,比景德镇更老的瓷都,0.9800000000000001,99,284,117.62841416198334,29.552942260250475
红旗渠,5A,河南省安阳市林州市任村镇太行路225号,渠水奔腾，飞瀑喷雪，好似银河倾泻,1.0,86.7,284,113.83741560189571,36.08930362671359
木兰草原,5A,湖北省武汉市黄陂区王家河镇聂家岗,原滋原味的蒙古风情,0.7,63.1,284,114.4699007045405,30.96709255021
大东海,4A,海南省三亚旅游区大东海游览区,沙滩、美景、美女，来这里让你大饱眼福,0.9,29.9,282,109.53005402378693,18.228794537671646
长白山,5A,吉林省延边市安图县二道白河镇池北区,千年积雪万年松，直上人间第一峰,1.0,10,282,128.13284177020378,42.43723377030355
重元寺,4A,江苏省苏州市工业园区唯亭镇阳澄半岛,表现出水天佛国的江东观音道场特色,0.0,14.8,282,120.78268403093365,31.422070305729747
合肥万达电影乐园,,安徽省合肥市万达文化旅游城万达茂内,将徽派文化与高科技完美结合的乐园,0.0,33,282,117.31046429926697,31.697428216446408
郑州海洋馆,3A,河南省郑州市金水区文化路与国基路交口向西100米,新一代大型现代化水族馆,0.0,125,280,113.6632799729974,34.82577109526165
庐山西海,4A,江西省九江市永修县柘林湖,自然资源异彩纷呈，得天独厚，堪称稀世珍宝,0.72,113,280,115.47959224765474,29.202459382861885
苏迪糖果乐园,,江苏省苏州市高新区玉山路162号苏州乐园水上世界商业广场A区,给孩子一片欢乐徜徉的海洋,0.0,30,280,120.54903455758489,31.28998643712114
雁门关,5A,山西省忻州市代县雁门关景区,雁门关“九塞尊崇第一关”,0.72,9,278,112.85776411860444,39.19770323830029
傣族园,4A,云南省西双版纳市景洪市勐罕镇橄榄坝,梦回傣族园，聆听另一种文化,1.0,53,278,100.9327399051241,21.858839077977045
牛郎岗海滨浴场,3A,福建省宁德福鼎市秦屿镇东南方,环山绿树成荫，礁石造型各异,0.7,35,278,120.25819814006408,27.108700756191745
紫云谷,,广东省肇庆市鼎湖区坑口紫云谷,吸纳山氧，弄瀑戏水，沐浴山泉，置身大自然,0.0,46.9,278,112.56490992889013,23.16646626902357
济南野生动物世界,,山东省济南市章丘市埠村街道南侧的埠西村,各类珍稀保护动物,0.0,150,278,117.47062397555658,36.63058385935771
地下大峡谷,4A,山东省临沂市沂水县姚店子镇永富庄,中国地下河漂流第一洞,1.0,84,278,118.56297129094769,35.73613782322172
盘门,4A,江苏省苏州市沧浪区东大街49号,古迹众多，景观丰富，苏州古城的标志,0.78,18,276,120.62540945323012,31.295342257785496
三亚扬帆游艇俱乐部,,海南省三亚市南边海路170号盐场码头,喝啤酒，尝美食，听涛声，领略海上别样美景,0.0,60.6,276,109.52343327396558,18.232571166092114
欧乐堡戏水湾泰式养生温泉,,齐河县黄河国际生态城旅游路07号（泉城欧乐堡停车场院内）,设施齐全，乐享休闲养生,0.0,200,276,116.84681183783798,36.74916412507776
北京园博园,,北京市丰台区永定河畔,以园林为主题的博物馆,0.0,18,274,116.2583703354677,39.84193785220474
珠海长隆国际海洋度假区,,广东省珠海市横琴岛南端环岛路长隆大道东侧,爸爸，放假我们就去这儿,0.0,113,274,113.52557804293583,22.1018729708167
京城水系皇家御河游,,北京市西城区西直门外大街135号北京展览馆后湖皇帝船码头,京城惬意的绿色交通游览方式,0.0,65,272,116.3518801728396,39.94799910702938
葡萄沟,5A,新疆省吐鲁番市东北10公里的火焰山中,去新疆必游之地,1.0,75,270,89.35585603964023,42.678924820793675
南宫温泉水世界,4A,北京市丰台区王佐镇南宫村长青路97号南宫文化休闲广场西侧,温泉与水世界，沐浴与戏水的有趣结合,0.0,98,270,116.16141672700168,39.803583777825004
西双版纳万达水乐园,,云南省西双版纳景洪市嘎栋工业区万达国际度假区主题公园,花朵主题室外水乐园,0.0,150,270,100.76799277219192,22.02212837012839
明堂山,4A,安徽省安庆市岳西县河图镇,远离城市雾霾,0.7,45,268,116.03401358506554,30.83251371947359
赤水丹霞旅游区·大瀑布,4A,贵州省遵义市赤水市两河口乡,瀑水声如雷鸣，数百米内水雾弥漫,0.74,20,268,105.76227238796278,28.3887451595205
欢乐海岸teamLab未来游乐园,,广东省深圳市南山区欢乐海岸创展中心及户外广场,目眩的科技景观中，感受到自然与生命的活力,0.0,198,268,113.99952359057224,22.533827146797243
西湖游船,,杭州市上城区西湖景区,游览西湖好去处,0.0,78,268,120.16452596104408,30.24497339852823
上海星空错觉艺术馆,,上海市黄浦区中山东二路531号（外滩十六铺码头）负2楼,你就是故事的主角,0.0,47,266,121.5049757344561,31.23327377730635
中南百草原景区,4A,浙江省湖州市安吉县递铺镇马鞍山村,林深花奇，天然的绿色大氧吧,0.74,90,266,119.69274805049754,30.63794596904743
龙亭公园,4A,河南省开封市龙亭区宋都御街北街,开封揽胜必游龙亭，中外游客向往之地,0.86,38.4,266,114.358366746574,34.80885443846524
日隆镇,4A,四川省阿坝藏族羌族自治州小金县,农产以油菜籽为主，有“高原油田”之称,0.0,368,266,102.41921664895499,30.969288643982303
韶关云门山,,广东省韶关市乳源县乳城镇,休闲、参禅、旅游的圣地,0.0,90,264,113.28741300885024,24.78902880272565
个园,4A,江苏省扬州市广陵区盐阜东路10号,聆听石头与竹子的低语,0.8800000000000001,20,264,119.4499460001213,32.40605607611544
合肥宝贝地球村,,安徽省合肥市政务区绿地蓝海大厦C座地球广场（潜山路与高河路交叉口）,安徽第一家青少年体验教育基地,0.0,128,264,117.2386082809812,31.826608206822765
姑婆山,4A,广西壮族自治区贺州市八步区姑婆山大道姑婆山国家森林公园,大自然的森林氧吧,0.78,36.5,264,111.57364537198123,24.600358842069802
大相国寺,4A,河南省开封市龙亭区自由西段36号,我国古代著名的佛教中心之一,0.9199999999999999,38,264,114.34098849917815,34.86057276685059
上海汽车博物馆,,上海市嘉定区安亭博园路7565号,汽车世界，等你来探索,0.7,49,262,121.17622441115664,31.286180571652384
十渡东湖港,4A,北京市房山区十渡镇平峪村,塞上江南景，港竹筏戏水,0.0,128,262,115.52386989598486,39.66936504817197
长影世纪城,5A,吉林省长春市净月开发区长双公路,北方冬天玩出狂拽酷炫,0.86,225,262,125.45815714645732,43.8093397133977
日照九仙山,,山东省日照市五莲县文化路东首,"山群削峻,高耸入云",0.78,68,262,119.40451211398707,35.69739892828994
鸣翠湖国家湿地公园,4A,宁夏回族自治区银川市兴庆区掌政镇东1公里,湖光戏柳，草树烟绵，百鸟翔集，鱼跃其间,0.72,26.9,262,106.37824361697757,38.40498078961497
自贡恐龙博物馆,4A,四川省自贡市大安区大山铺238号,世界三大恐龙遗址博物馆之一,1.0,38,260,104.83444664494439,29.400854676211157
大连成园温泉,,辽宁省大连市甘井子区红旗街道柳树街66号,有温泉，有嬉水乐园、有玉佛，啥都有,0.0,84,258,121.48877873006009,38.936275727322574
梦幻百花洲,,广东省东莞市新城路松山湖新城大道中心公园内,徜徉花海，您自拍的理想圣地,0.0,3.1,258,113.93264833859851,22.923532254739374
都江堰熊猫乐园,,四川省成都市都江堰市S106(川西旅游环线),大熊猫救护与疾病防控研究基地,0.0,29,258,103.71393710421158,31.033760895286466
银杏湖乐园,,江苏省南京市江宁区银杏湖大道520号,让小朋友能够体验互动的快乐,0.0,94.8,258,118.71646655004865,31.814662962759623
金海湖风景区,4A,北京市平谷区东南盘山脚下海子村,峰峦叠翠，野卉生香，云影波光，美景如画,0.7,23.5,256,117.30889146603091,40.18095444112771
五龙潭,,山东省济南市历下区趵突泉北路筐市街18号五龙潭公园内,碧波荡漾，澄澈如镜，水木明瑟，锦鱼戏游,0.76,55,256,117.02080569386273,36.670374659294076
狮子山公园,,云南省丽江市古城区新华街黄山段(狮山路口),世界文化遗产丽江古城的重要组成部分,0.74,34,256,100.23651189571183,26.87763746697452
金鸡湖,5A,江苏省苏州市吴中区苏州工业园区,古城东部的这片湖水，是苏州的另一张脸,0.0,30,256,120.83003388953415,31.321659455666595
中国渔村,4A,浙江省宁波市象山石浦中国渔村,观看渔家传统活动，感受真切的渔区风情,0.72,50,256,121.96557448414704,29.24350934487986
七曲山大庙,4A,四川省绵阳市梓潼县七曲山,山势雄奇，峰回路转，巍巍庙宇,0.8800000000000001,33,254,105.1938341844829,31.653620996937434
潭溪山,4A,山东省淄博市淄川区太和镇峨庄石沟村东,面积广阔，植被丰茂，一年四季，各有神韵,0.0,73,254,118.19147655232997,36.49043254825497
绍兴乔波冰雪世界,4A,浙江省绍兴市绍兴县柯岩街道柯南大道2168号,可提供四季滑雪的运动场所,0.7,147,254,120.48336072542898,30.060803517489568
连岛,4A,江苏省连云港市连云区连岛镇连岛街道,避暑纳凉，踏浪休闲的胜地,0.9,43.9,254,119.4646853286578,34.77026799853849
南诏风情岛,4A,云南省大理白族自治州洱源县环海路双廊镇,摄影家梦开始的地方,0.76,45,254,100.20011637066473,25.915811758557794
哈尔滨香炉山,,黑龙江省哈尔滨市宾县南端,保持原始生态的天然森林氧吧,0.76,37,252,127.66161209687843,45.783825431221096
乌兰布统草原,,乌兰布统旅游开发区地处克什克腾旗西南部（克什克腾旗乌兰布统乡），浑善达克沙地的东南边缘，平均海拔高度1500米，距旗人民政府所在地115公里,它是天公的赐予是造化的神奇,0.0,99.8,252,,
八大处富斯特索·滑道,,北京市石景山区石景山八大处公园内,不锈钢槽，滑车，限速器以及刹车安全放心,0.0,20,252,116.18883609055747,39.96883639311781
长沙摩天轮,,湖南省长沙市天心区芙蓉中路近贺龙体育广场,在这里观赏到整个长沙市的风景,0.0,47.9,252,112.99334526138817,28.190258680105458
印象武隆,,重庆市武隆县距仙女山镇8公里的桃园大峡谷,青山秀水中领略川蜀人情,0.0,180,252,107.76802775846248,29.424486459183232
大石湖,,辽宁省本溪市本溪满族自治县辽宁省本溪市本溪县东营坊乡新城子村,五龙飞腾绕山流,0.72,48.8,252,124.53190733372591,41.228219682817425
常家庄园,4A,山西省晋中市榆次区东阳镇车辋村,制茗于武夷山，拓开万里茶路,0.76,27.8,250,112.64760594429104,37.548722745729144
蠡园,4A,江苏省无锡市滨湖区环湖路青祁村70号,范蠡西施幽会的地方,0.8800000000000001,9,250,120.26540175410088,31.5241388060641
阳朔,,广西壮族自治区桂林市阳朔县,"“阳朔山水甲桂林”,古镇人家清幽静美",0.0,80,250,110.48292929478309,24.857282289723944
帽儿山,,黑龙江省哈尔滨尚志市帽儿山镇,相传神仙的帽子掉落在此，便形成了帽儿山,0.7,35.9,250,127.51918539956816,45.28178392118188
采石矶,4A,安徽省马鞍山市雨山区采石镇唐贤街1号,千古画卷，诗仙长眠之地,1.0,60.8,250,118.4687570090612,31.65914839142111
凤凰山海港乐园,4A,浙江省宁波市北仑区辽河路728号,能让你“疯狂”的主题乐园,0.74,145,248,121.85614846567216,29.898230592188835
鹭江夜游（轮渡码头）,,福建省厦门市思明区鹭江道15号轮渡码头,两岸风光尽收眼底，感受鹭岛魔幻般的夜晚,0.0,54.1,248,118.07993699979257,24.46102101976351
双溪竹海漂流,4A,浙江省杭州市余杭区径山镇双溪竹海路2号,江南第一漂，水清、竹多、落差大,0.7,90,248,119.85493044489718,30.40417160221014
鞍山千山,5A,辽宁省鞍山市千山区千山东路79号,无穷无尽的天然画卷,0.9,5.5,248,123.1449288355936,41.05524222973651
杭州Hello Kitty乐园,,浙江省湖州市安吉县天使大道1号,满眼的凯蒂猫，整个公园都是萌萌哒,0.0,6.9,248,119.58315792626792,30.626370494334115
寨下大峡谷,,福建省三明市泰宁县寨下村,丹霞地貌的绝佳地，世界地质公园的榜样,0.0,49,248,117.0801067495097,26.914268703183748
敦煌阳关景区,4A,甘肃省酒泉敦煌市阳关镇,西出阳关无故人，一座被流沙掩埋的古城,0.74,5.4,246,94.10286857538571,39.909772511894374
千岛湖森林氧吧,,浙江省杭州市淳安县千岛湖镇淡竹王子山森林氧吧景区,远离雾霭，洗洗肺，静静心,0.7,37.8,246,119.22473909450052,29.595141713356224
岳阳楼—君山岛景区,5A,湖南省岳阳市岳阳楼区洞庭北路60号,未到江南先一笑，岳阳楼上对君山,1.0,3.9,246,113.10113903000617,29.38393067562104
火山岛自然生态风景区,4A,福建省漳州市漳浦县前亭镇江口村与岐沙村交口处,滨海火山地貌,0.0,60,246,118.00853615472889,24.204998397887426
乌蒙大草原,,贵州六盘水市盘县北部,来大草原欣赏美景、跟着音乐high起来,0.0,25,246,104.66691307994014,25.772838336514294
又见敦煌,,甘肃省敦煌市莫高窟数字展示中心西侧又见敦煌剧院,带您穿梭重顾千年前的历史故事,0.0,298,244,94.67381193673876,40.148198732213366
东山风动石,4A,福建省漳州市东山县铜陵镇公园街关帝庙,乐享东山海滨风情,0.74,5.2,244,117.52153008938888,23.742494512716238
解州关帝庙,4A,山西省运城市解州镇西关五一路145号,关公文化的发源地和集散地,0.82,52.1,244,110.85450121824915,34.915296175256884
北海银滩,4A,广西壮族自治区北海市银海区银滩大道,滩长平，沙细白，水温净，浪柔软，无鲨鱼,0.0,65,242,109.13580245881516,21.437841026761085
厦门日月谷温泉渡假村,4A,福建省厦门市海沧区孚莲路1888号,东南亚风情建筑风格，百多个露天温泉泡池,0.72,145,242,117.94608799305274,24.564937655518158
上海海湾国家森林公园,4A,上海市奉贤区海湾镇随塘河路1677号,近似自然形态的人工森林,0.0,69,242,121.6847367136515,30.87230826057462
乾陵,4A,陕西省咸阳市乾县城北6公里梁山上,一代女皇圣地，千古盛唐乾陵,1.0,3.7,242,108.22948289516398,34.52767257979596
上海自然博物馆,,上海市静安区石门二路128号静安雕塑公园内,在这里领略物种的变迁,0.7,38,242,121.4709519102146,31.24109890475162
药王谷,4A,四川省绵阳市北川羌族自治县药王山上,游人古刹参禅、森林揽胜的绝佳去所,0.0,9,242,104.25834135738738,31.962527312738946
坎儿井乐园,,新疆维吾尔自治区吐鲁番地区吐鲁番市,提供吃、住、游、购、娱全面服务的世外桃源,0.0,40,242,89.26602548864244,42.678924820793675
辽中花溪地温泉生态乐园,,辽宁省沈阳市辽中县杨士岗镇佑户坨村,一座休闲度假庄园,0.0,46,242,122.98379231584158,41.69391560441053
观音山国家森林公园,4A,广东省东莞市樟木头镇石新区笔架山大道1号,南天圣地，百粤秘境,0.76,38.8,242,114.09105373556467,22.902266927766984
加勒比海水世界,4A,重庆市南岸区崇文路35号,在阳光下合法的、正当的、干净的抢劫快乐吧,0.72,9.9,240,106.61963481144572,29.557680583759094
贵德国家地质公园阿什贡七彩峰丛景区,,青海省海南藏族自治州贵德县尕让乡阿什贡村,丹霞地貌悠久奇特，山峰突兀林立,0.0,79.5,240,101.57823902663985,36.137477843013436
侗乡肇兴,,贵州省黔东南苗族侗族自治州黎平县,大型侗寨鼓楼群，建筑别具匠心,0.7,70,240,109.33697304601101,25.938276335425037
横店明清宫苑,,浙江省金华市东阳市万盛街42号横店影视城,寻觅甄嬛传，梦回紫禁城,0.0,154,240,120.36973286424832,29.16539544044277
长泰小黄山景区,,福建省漳州市长泰县长泰马洋溪旅游区旺亭村旺头社,天生一个仙人洞，无限风光在险峰,0.0,33,240,117.82731206229057,24.583093898602336
百丈漈,,浙江省温州市文成县南田,一漈百丈高、二漈百丈深、三漈百丈宽,0.0,55,236,119.97057890834733,27.92437542107642
日本环球影城,,日本大阪环球影城,首座不位于美国本土的环球影城,1.0,60,236,87.31424424899554,44.01115015883719
天下第一泉风景区,5A,山东省济南市明湖路271号,玉带串名泉，一水连百景,0.0,55,236,117.02420099135132,36.66748927290511
北普陀山,4A,辽宁省锦州市笔架山开发区勃海路1号,被誉为“关外第一佛山”,0.76,40,236,121.06758456088218,41.16886102168326
西樵山国艺影视城,,广东省佛山市西樵环山大道国艺影视城（西樵山南门）,踩大仙脚印，求平步青云,0.0,15,236,112.98165444579014,22.91305373694563
西安浐灞国家湿地公园,,陕西省西安市浐灞生态区启源三路1号,春季踏青赏花，夏季观荷采莲,0.0,38.1,234,109.07509472508144,34.31818400564781
七仙岭温泉国家森林公园,,海南省直辖县级行政单位保亭黎族苗族自治县,集温泉、奇峰和热带田园风光于一体,0.0,33,234,109.65611337968579,18.597592346266765
湖州安吉乐翻天欢乐风暴水上乐园,,浙江省湖州市安吉县递铺镇浦源大道4158号(306省道旁),十大嬉水主题的水乐园,0.0,169,234,119.69274805049754,30.63794596904743
居庸关长城,4A,北京市昌平区南口镇居庸关长城,千年军事关口，地形险要，历史独特,0.72,8.4,234,116.07933921011461,40.298691959594805
广州星期8小镇,,广州市白云区云霄路353栋5号停机坪购物广场2楼（离万达广场约10分钟路程）,让孩子感知成人的苦与乐、忙碌与责任,0.0,41,234,113.27162839855296,23.188455969485965
浙北大峡谷,4A,浙江省湖州市安吉县报福镇石岭村浙北大峡谷风景区,林石飞瀑竹海，浙江“青藏高原”,0.0,69,234,119.51629210705308,30.45279454662022
七星景区,4A,广西壮族自治区桂林市七星区龙隐路1号,探寻古往今来桂林人的故事,0.76,36,234,110.31203211403371,25.276773847224565
白洋淀荷花大观园,5A,河北省保定市安新县白洋淀景区,白洋淀标志景点，国内赏荷生态园NO1,0.72,32.5,232,115.97831947707441,38.95242217642641
六朝博物馆,,江苏省南京市玄武区长江路302号,研究六朝历史文化的专题博物馆,0.0,1,232,118.8056663342733,32.04872679426031
北海海滨公园,,广西壮族自治区北海市海城区茶亭路23号,园内展出北部湾众多海洋生物标本,0.74,108,232,109.13600202277397,21.492862787300467
广州动物园,4A,广东省广州市越秀区先烈中路120号,我国三大城市动物园之一,0.74,110,232,113.30981160456435,23.149902984981228
凤岭欢乐水世界,,广西省南宁市云景路25号南宁凤岭儿童公园内,广西大型水上乐园,0.0,69,232,108.40649184992293,22.825514772333648
郑州绿博园,4A,河南省郑州市中牟县郑开大道与人文路交汇向南1000米,"百花闹春,静待客来",0.0,15,230,113.94485531460916,34.77095389549853
司马台长城,4A,北京市密云县东北部的古北口镇境内,城墙依险峻山势而筑，以奇、特、险著称于世,0.76,136.9,230,117.17049238553369,40.69786005272679
天目湖山水园,5A,江苏省常州市溧阳市环湖东路1号（天目湖宾馆对面）,充满着浓郁的乡村田园气息的乡村田园岛,0.0,158,230,119.44319121609327,31.300236005551376
八里沟,4A,河南省新乡辉县市上八里镇松树坪村,荟萃太行山水精华,0.8400000000000001,68.5,230,113.58316036776598,35.60246004221239
禅宗少林音乐大典,,河南省郑州登封市待仙沟,领略博大精深的中国文化,0.0,187,228,113.07866590015608,34.60984643304366
崆峒山,5A,甘肃省平凉市崆峒区城西12公里处,崆峒派驻地，小心七伤拳,1.0,5.4,228,106.74888681637321,35.51577431592054
天水麦积山温泉,,甘肃省天水市麦积区街亭古镇1号,游客理想的度假休闲地,0.0,148,228,106.05204030761308,34.52021847145537
清东陵,5A,河北省唐山市遵化市西北30公里处,众多清朝帝王和皇后的宏伟陵墓建筑群,1.0,5.5,228,117.68814747462282,40.13790106402117
澳门环岛游,,广东省珠海市湾仔南湾南路3002号,“浪漫之城”珠海的美丽景色一览无余,0.8,87.01,228,113.54001019859334,22.196786349683443
九宫山,4A,湖北省咸宁市通山县九宫山,高山湖泊，大崖头瀑布,0.78,54,228,114.67252415214952,29.41619507349287
郑州方特梦幻王国,,河南省郑州市中牟县新区郑汴物流大道与人文路交汇处,创造出充满幻想和创意的神奇天地,0.0,158,228,113.94485531460916,34.77095389549853
腾冲火山热海旅游区,5A,云南省保山市腾冲县离县城10公里,囊括世界9大温泉种类，是泡温泉的好去处,0.78,54,226,98.49998832150521,25.27997812353877
新加坡夜间野生动物园,,80 Mandai Lake Road Singapore 729826,世界上第一间夜间动物们的栖息地,0.0,10,226,,
仙公山,4A,福建省泉州市洛江区马甲镇,山势雄伟，岩崖陡立，径曲林深,0.7,13.9,224,118.62586286242777,25.124368131614847
黑龙江龙塔,4A,黑龙江省哈尔滨市南岗区长江路178号,亚洲第一、世界第二高钢塔,0.8400000000000001,65,224,126.68701472045066,45.754933126481504
云雾山,5A,湖北省武汉市黄陂区泡桐店境内,中国野生杜鹃花的荟萃地，堪称华中一绝,0.7,9,224,114.36464422878903,30.98528589767439
珍珠泉,,江苏省南京市浦口区珍珠街178号,滤净纷乱繁杂心绪，收获静谧清新,0.72,88,224,118.6661093397703,32.125785509067256
小梅沙,,广东省深圳市盐田区小梅沙,东方夏威夷，深圳黄金海岸上的明珠,0.7,145,224,114.33602703788782,22.609181113292674
宝鸡太白山,5A,陕西省宝鸡市太白山脚下眉县汤峪镇,岩崖已奇绝，冰雪竟雕皱,0.78,54,224,107.77457117580664,33.96003230253039
岳阳平江石牛寨,,湖南省岳阳市平江县大坪乡,享有“天下第一寨”之美誉,0.0,118,220,113.94500191142531,28.9432033238062
印象普陀,,浙江省舟山市普陀区朱家尖岛白山景区观音文化苑,放下万千烦恼，做自己心中的佛,0.0,278,220,122.39655767966389,29.920989056036934
芜湖大浦乡村世界,,安徽芜湖南陵县205国道段25公里处,“旅游产业与现代农业”高度结合的可贵探索,0.0,70,220,118.3906475483576,31.007108495907406
包公祠,4A,河南省开封市鼓楼区向阳路1号,开封有个包青天，铁面无私辨忠奸,0.9199999999999999,26.2,220,114.3452463621937,34.79897038870618
南宁海底世界,4A,广西省南宁市兴宁区民主路6-8号人民公园后门,不一样的地方，不一样的海底世界,0.0,39.2,220,108.34172599894704,22.83192756644889
泰山地下溶洞漂流,,山东省泰安市泰山区邱家店镇宝泰隆旅游区,地下暗河漂流，水道蜿蜒曲折，惊险刺激,0.0,95,220,117.2510608479776,36.167156227884604
锦里,,四川省成都市武侯区武侯祠大街231号,熙熙攘攘里，看透人生百态,0.82,4.5,220,104.0558629285102,30.650828829909614
昆明金殿风景名胜区,4A,云南省昆明市盘龙区鸣凤山上穿金路,明代道观风景，金殿朝晖，昆明名景,0.0,24.8,220,102.7481571964674,25.074466467568
地王大厦,3A,广东省深圳市罗湖区深南东路5002号信兴广场商业中心地王大厦69层,南望香港，北瞰深圳,0.9400000000000001,70,220,114.1171477795862,22.549040688618806
桥溪古韵,,广东省梅县雁洋镇长教村,广东省古村落,0.0,37.4,218,116.37431658516735,24.38860351433718
千朝浪屿水世界,,山西省晋中市祁县208国道与龙城高速交汇处（乔家大院往北3公里）,水上游乐来室内水上乐园,0.0,28,218,112.44830964901766,37.43460332366304
玉圭园环球名胜梦幻水上乐园,,广西桂林雁山区良丰路（环城高速公路口）,激情四射，时尚动感的水上狂欢胜地,0.0,134,218,110.30310954094857,25.108747159928182
木渎古镇,4A,江苏省苏州市吴中区中山西路,与灵山相辅相成，展现园林古镇的魅力,0.76,39,218,120.51815229276272,31.26164009434593
闽江夜游,,福建省福州市台江区闽江,和你一起看江水滔滔，看星光漫漫,0.0,49,218,119.32406268487432,26.062153767547695
天门狐仙,,湖南省张家界市永定区天门山天门狐仙峡谷大剧场,人与妖的惊天爱情,0.0,158,216,110.48867173754067,29.052769079680388
朱家角古镇,4A,上海市青浦区朱家角镇美周路36号,逛逛沪上第一明清北大街,0.72,3.2,216,121.0621222417541,31.11539034071988
长津冰雪大世界,,广东省惠州市博罗县长宁镇长福路古坭塘村长津冰雪大世界,体验三伏盛夏里的冰情雪趣,0.0,88,216,114.0139651460986,23.198939880810947
乌镇一日游,,浙江省嘉兴市桐乡市乌镇石佛南路18号,鱼米之乡，丝绸之府,0.0,68,216,120.4952183581607,30.752402763197956
长津冰雪大世界,,广东省惠州市博罗县长宁镇长福路古坭塘村长津冰雪大世界,体验三伏盛夏里的冰情雪趣,0.0,88,216,114.0139651460986,23.198939880810947
武隆仙女山国家森林公园,5A,重庆市武隆县境乌江北岸双河乡,又一个仙女下凡调戏牧童的故事,0.82,59,216,107.73034737536693,29.55325217302645
贺兰山岩画,4A,宁夏回族自治区银川市贺兰县贺兰山东麓贺兰口,刻在岩石上的金戈铁马,0.9,30,216,106.03176491445596,38.74391736886532
鸭绿江断桥,,辽宁省丹东市振兴区鸭绿江,鸭绿江第一桥，寓意祈盼和维护世界和平,0.7,25,216,124.35661567417156,40.08042620012398
钟山风景区,4A,江苏省南京市玄武区石象路7号,伟大的民主革命先行者孙中山先生的陵寝,0.76,26.2,216,118.84760955880598,32.05287694557689
西湖外事游船,,浙江省杭州市西湖花港观鱼外事游船码头,荷红莲碧西湖赏荷正当时,0.0,35,216,120.14893577729126,30.23862051258734
江心屿,4A,浙江省温州市鹿城区望江东路119号,苍翠蓊郁，山绕水环，亭台点缀，桥榭相映,0.8,13,216,120.65406404088425,28.028322231585342
苍山中和索道,,大理古城三月街赛马场西,解读大理历史文化、感受浓郁的白族风情,0.0,70,216,100.1681667805682,25.701345942073278
茂名森林公园,4A,广东省茂名市茂南区茂名森林公园,以森林为主，兼种新、奇、特南亚热带植被,0.72,14.5,214,110.83634645019156,21.647524226721604
沈阳昭陵,4A,辽宁省沈阳市皇姑区北郊泰山路12号,清代皇家陵寝和现代园林合一的游览胜地,0.82,44.9,214,123.43412720405118,41.85856166399176
微山湖湿地红荷旅游区,4A,山东省枣庄市滕州市滨湖镇微山湖湿地红荷旅游区,万顷红荷，百里芦荡，鸥骛翔集，碧水白帆,0.0,50,214,116.91142395372859,35.140665644071824
刘氏庄园,4A,四川省成都市大邑县安仁镇金桂街15号,川西民俗传统文化大观园：建筑、馆藏、泥塑,0.7,1.4,214,103.63399348331771,30.511673503946714
植物园动漫水世界,,新疆乌鲁木齐市北京中路916号（植物园内）,集游泳、嬉水、水上大冲关体验的休闲胜地,0.0,38,214,87.55675562890876,43.894524837485164
香港八达通,,香港特别行政区,有了八达通，想去哪儿就去哪儿,0.0,70,212,114.18612410257077,22.29358599327966
扶绥龙谷湾恐龙公园,,广西省崇左市扶绥县岜盆乡祥宁路1号,震撼人心的视觉体验，惊险刺激的冒险历程,0.0,98.9,212,107.87385878523678,22.527962297794975
大同华严寺,4A,山西省大同市城区下寺坡街14号,历史之珍品，文物之精华，中华文化之结晶,0.72,9.9,212,113.3031508858446,40.09803967132115
中国大竹海,,浙江省湖州市安吉县天荒坪镇五鹤村,卧虎藏龙拍摄地,0.8,36,210,119.66154274423431,30.493394223227092
珠海御温泉,,广东省珠海市斗门区斗门镇斗门大道北（近黄杨大道西）,中国第一家日式露天温泉,0.72,97,210,113.20404666343147,22.24549428443904
湄公河篝火晚会,,云南省西双版纳傣族自治州景洪市曼听路路35号曼听公园内,异域狂欢，吃喝玩乐嗨翻天,0.0,166,210,100.81338780030971,21.99779696804717
海南热带野生动植物园,4A,海南省海口市秀英区东山镇（海榆中线27公里处）,"每个海口人都知道的,千万别错过",0.72,55,210,110.28674098625642,19.99545914534914
青城道温泉,,四川省成都市都江堰市青城山大道88号青城豪生国际酒店,吐纳青城气息，享受自然温暖,0.0,58,208,103.60622587186825,30.900200086832054
太行大峡谷,4A,河南省安阳林州市石板岩乡,带你感受峡谷纵横的壮观,0.9400000000000001,145,208,113.73240605521124,36.17190075076166
亚龙湾海底世界,,海南省三亚市亚龙湾国家旅游度假区,"潜在海南,感受不一样的水下世界",0.72,90,208,109.65013564160743,18.23821057515121
世纪欢乐园,,河南省郑州市管城回族区石化路1号,探寻火车文化，感受迪斯尼欢乐,0.76,96.8,208,113.72772789031876,34.73363128860853
上海大观园,4A,上海市青浦区金商公路701号上海大观园,红楼遗梦，亭台楼阁，尽显恢弘宏伟,0.7,47,208,120.9177257547738,31.07866243476002
印象澜沧江游轮,,云南省西双版纳州景洪市179县道,沿途景色美不胜收，宛如山水画卷,0.0,62,208,100.96941263018367,21.877977517217232
太平山顶缆车,,香港特别行政区香港岛山顶路128号凌宵阁地下G10铺(近山顶缆车站),不论白天或晚上，都有不一样的精彩等你,0.0,31,208,114.18386964319923,22.272099587605933
僰王山,,四川省宜宾市兴文县博望山镇,集山水精华，汇瀑布大观，书写僰人文明,0.0,9.9,206,105.14122589127905,28.255538437301958
婺源,5A,江西省上饶市婺源县文公北路,中国绝美乡村，开始你的文艺之旅,1.0,166.1,206,117.86705893702468,29.2906572837189
小皇帝岛,,"Ko Racha Yai, Phuket",来欣赏岛上美丽的景色吧,0.0,158,206,,
火焰山,4A,新疆省吐鲁番地区吐鲁番市高昌路51号,气温居高不下，真是名副其实的火焰山,0.8400000000000001,40,204,89.18753393966297,42.956267295183494
康定情歌木格措风景区,4A,四川省甘孜州康定县雅拉乡王母村,童话里的木格措，享受大小金川自然风景,0.0,180,204,101.96337092593335,30.08555075185063
十里画廊,,湖南省张家界市武陵源区,张家界索溪峪景区内一处非去不可的景点,0.9800000000000001,248,204,110.4884957873388,29.35720050870958
辛玛王国主题乐园,,河北省石家庄鹿泉市向阳南大街石家庄市动物园《辛玛王国》,让小松鼠辛玛带你游园玩乐,0.0,95,204,114.31379511874626,38.07366729428831
雁荡山,5A,浙江省温州乐清市雁荡镇雁山路88号,东南第一山，中国十大名山之一,1.0,20,204,121.11957211119041,28.375694573530605
成都锦江川剧院,,四川省成都市锦江区华兴正街54号,到四川看川戏，就到锦江剧场,0.0,80,204,104.08677759790703,30.665190699875755
勐泐大佛寺,4A,云南省西双版纳州景洪市勐泐大道顶端4路1号,古代傣王朝的皇家寺院,0.76,96,202,100.8065233700117,21.998986608660513
望天树景区,4A,云南省勐腊县西双版纳热带雨林国家公园望天树景区,走进望天树，亲近热带雨林,0.82,65,202,101.594715845249,21.60266195166553
八仙过海景区,5A,山东省烟台蓬莱市海滨路东8号,放漂心灵，体验澎湃激情，尽享探险之乐,0.72,70,202,120.79979221625251,37.822615306308876
张裕爱斐堡,4A,北京市密云县巨各庄东白岩（近蔡家洼）,高大上国际酒庄新领袖，开启酒庄新时代,0.0,64.6,202,116.9930514770467,40.37021331122897
浪漫海岸度假区,,广东省茂名市电白县博贺镇尖岗管理区（近龙头山度假区）,“爱”与“浪漫”的东南亚异域风格,0.0,70.1,200,111.2389883593018,21.494290084380463
越美冰雪大世界,,广东省广州市番禺区沙头街横江村第一工业区路1号之二,广东省首家全天候越美冰雪大世界,0.0,68,200,113.32310313500433,22.942768405406266
河南宝泉旅游度假区,,河南省新乡市辉县薄壁镇,峡谷万丈，森林繁茂，瀑布景观让人叹为观止,0.0,30,200,113.51796862473658,35.44950224787079
洛阳凤翔温泉,,河南省洛阳市龙门石窟世界文化遗产园区管委会张沟村,消脂去腻、美容养颜、清新怡神、延年益寿,0.0,67,200,112.48389489442202,34.571935149197564
鼎盛王朝·康熙大典,,河北省承德市双滦区元宝山旅游风景区,感受康熙大帝胸怀天下，梦回群雄逐鹿时代,0.0,178,200,117.80933581724904,41.05145316070315
云南野生动物园,,云南省昆明市盘龙区穿金路,我国大型野生动物保护研究基地,0.0,68,198,102.7481571964674,25.074466467568
增城金叶子温泉,,广东省广州增城市白水寨大道38号,高山温泉水疗养生，视野开阔滋养身心,0.0,75,198,113.79318159869281,23.571091922935306
客天下,4A,广东省梅州市梅江区三角镇客天下旅游产业园,游览美景，体验客家文化,0.0,64.1,198,116.15645601609337,24.271905769168967
贵州阿西里西,,贵州省毕节市赫章县韭菜坪景区中营服务区,来这里体验天上花海、天上石林的美景,0.0,45,198,104.85413728342837,27.199717895815642
黄花溪,4A,山东省青州市,被众多游客称为“北方九寨沟”,0.0,91,198,118.47018708791366,36.68058442583128
百色星河水上乐园,,广西省百色市百东新区高速路口出入口旁,丰富感官体验、强化氛围营造、增强互动分享,0.0,60,198,106.9938652639128,23.82672198761774
广州海洋馆,,广东省广州市越秀区先烈中路120号,去感受与海洋之间从未有过的亲近,0.74,110,196,113.30981160456435,23.149902984981228
东山岛,,福建省漳州市东山县,东山风光极具南国海滨特色,0.8400000000000001,53.1,196,117.42541646767047,23.691110309815333
官鹅沟国家森林公园,4A,宕昌县城关镇,山清水秀，鸟语花香，峰回路转，曲经通幽,0.9800000000000001,80,196,104.39888897493978,34.04671395669504
大午温泉度假村,,河北省保定市徐水县大午温泉度假村,三千米深地下铁泉水，人尽皆知平价好温泉,0.0,32,196,115.66447316308479,39.09727550513178
阳朔天籁蝴蝶泉,4A,广西壮族自治区桂林市阳朔县321国道,原始吊桥，可鸟瞰遇龙河,0.74,49.7,196,110.40267661962417,24.862697079365027
无锡海底世界,,江苏省无锡市滨湖区蠡湖中央公园内7号楼,走进大海，亲身体验海洋世界的神奇,0.0,39.8,196,120.25422584542069,31.52774619657697
烟台海昌鲸鲨海洋公园,,山东省烟台市莱山区滨海中路45,感受来自深海鱼类霸主鲸鲨的震撼,0.0,108,196,121.45904553632423,37.524712453100626
碧湖温泉度假村,,辽阳市弓长岭区汤河镇柳河村,北欧异域风情，一个宁静致远的驿站,0.0,48,196,123.39398529855762,41.13915163143566
北京中华民族园,,北京市朝阳区民族园路1号(健翔桥东路口),中华各民族文化集萃地,0.72,78,196,116.39753668962157,39.98588667825409
十渡爱琴海薰衣草庄园,,北京市房山区张坊镇镇政府东侧爱琴海婚纱电影城,夏季戏水、夏季滑雪、尽在爱琴海薰衣草庄园,0.0,30,194,115.72376621532193,39.58270556566146
乳源广东大峡谷,,广东省韶关市乳源县大布镇,华南少数的地陷峡谷，美誉为“峡谷之母”,0.76,55,194,113.15147041398448,24.543770833714067
观音山梦幻陆世界,,福建省厦门市思明区环岛东路观音山商业街17号,滨海大型主题游乐园,0.0,75,194,118.20394057365473,24.500784361161195
广州名人蜡像馆,,广州市海珠区广州塔（小蛮腰）一楼东广场,创新性地实现了“活”的蜡像,0.0,90,194,113.3311082641809,23.112222456962243
北京野鸭湖国家湿地公园,3A,北京市延庆县康庄镇西北,北京市市级湿地鸟类自然保护区,0.7,42,192,115.90650656667346,40.38868412076512
易水湖,,河北省保定市易县安格庄乡,南邻狼牙山，北侧紫荆关，号称北方小桂林,0.0,87.5,192,115.25141205616363,39.2957211887886
高家大院,,陕西省西安市莲湖区北院门144号民居,逛百年历史大院，欣赏剪纸、皮影艺术,0.74,15,192,108.94967223181172,34.26906094827592
开封东京极地海洋馆,,河南省开封市汴京大道252号汴京公园内,漫步海底隧道，观赏极地动物风采,0.0,129,192,114.37755776909917,34.80109468661691
钟鼓索道,,福建省厦门市思明区虎园路31号,乘缆车腾云驾雾飞过高山，越过森林,0.72,43.9,192,118.10040607120409,24.459149541705447
南江大峡谷,4A,贵州省贵阳市开阳县南江乡龙广村,陶渊明的第二故乡，贵州的香格里拉,0.78,78.8,192,106.98336491062366,26.950442363867854
古东瀑布,4A,广西省桂林市灵川县大圩镇漓江古东景区,满城桂花香，好汉苍翠的原始森林,0.7,67.1,192,110.46137935756246,25.11378562524451
思拉堡虹溪谷温泉,,辽宁省营口盖州市双台乡思拉堡村,到“泉城”享受生态自然生活,0.0,88,192,122.26356329514302,40.244778721127865
三清山,5A,江西省上饶市玉山县,人间四月芳菲尽 三清杜鹃始盛开,0.86,219,190,118.1689167516483,28.75933998856814
石浦渔港古城,4A,浙江省宁波市象山县南部的石浦港畔,中国四大渔港之一，有“浙洋中路重镇”之称,0.72,55,190,121.94618484628003,29.21941409340668
雪窦山,,浙江省宁波奉化市溪口镇武岭西路39-1号,"让心灵去远行,去雪窦山进行一场禅修之旅吧",0.74,80,190,121.29055311695281,29.688011571165816
郑州动物园,,河南省郑州市金水区金水区郑花路2号,在中原也能观赏到一些珍稀动物,0.78,15,190,113.68987679772317,34.795978007361995
溱湖国家湿地公园,5A,江苏省泰州市姜堰市溱潼镇,溱湖观赏湿地公园，品尝美味溱湖簖蟹,1.0,75.1,190,120.0893877068995,32.6477488786081
洛江石龙谷森林游乐园,,福建省泉州市洛江区虹山乡苏山村,欣赏秀丽的自然景观，体验淳朴的农耕文化,0.0,33,190,118.60064358651496,25.268543099699293
山王坪喀斯特国家生态公园,,重庆市南川区金佛大道239号,独特的天然“生态石林”景观,0.0,35.7,190,107.0961480072798,29.15889356296091
小平岛景区,,辽宁省大连市甘井子区小平岛景区,信息产业带的龙头地段,0.0,28,188,121.4998900990826,38.83536492189047
千岛湖东南湖区,,浙江省杭州市淳安县千岛湖景区内,黄金旅游线上的一颗璀璨明珠,0.0,185,188,119.15867718360646,29.60076306591475
营口熊岳天沐温泉,,辽宁省营口市经济技术开发区熊岳镇温泉村铁东街,东北第一泉，辽宁首席温泉度假目的地,0.0,80,188,122.16684116974736,40.17144037869584
鄂尔多斯动物园,4A,内蒙古鄂尔多斯东胜铁西区三园路1号,春天带孩子与小动物们亲密接触吧,0.0,210,188,109.99757300751905,39.83213275490387
湖广会馆,4A,重庆市渝中区长滨路芭蕉园1号湖广会馆,一馆缩影江南明清遗风,0.72,27,186,106.59328334360751,29.56390688809595
珠海长隆企鹅酒店自助餐厅,,广东省珠海市香洲区横琴新区环岛东路长隆企鹅酒店内,企鹅极地主题酒店，企鹅陪你玩翻天,0.0,113,186,113.55604791545103,22.117772180127176
叠彩山,,广西壮族自治区桂林市龙珠路2号叠彩山,观历代名人摩崖石刻，登叠彩一览桂林全景,0.76,9,186,110.3100061754991,25.290605366024746
西安半坡博物馆,4A,陕西省西安市东郊半坡路155号,感受新石器时代的仰韶文化,0.7,6.4,186,109.05751235752118,34.27913386120137
琴岛之眼,,山东省青岛市黄岛区漓江西路,俯瞰西海岸，领略大青岛的磅礴气势,0.0,43,186,120.17994511371593,35.94134285863273
小白鹭海滨度假村,,福建省宁德福鼎市小白鹭海湾,以渔文化民俗游为主体的海滨休闲度假区,0.0,12.2,186,120.19830746411914,27.224828701233616
昆明花都海洋世界,,云南省昆明市呈贡区斗南花花世界,以花卉、海洋为主题的内陆高原海洋世界,0.0,100,186,102.78597618271327,24.90116789551296
天意谷,,四川省广安市邻水县甘坝乡苏家村,水石交融、高深莫测的神秘世界,0.0,95,186,106.83056635467052,30.261721786953505
维多利亚海港,,香港特别行政区油尖旺区,美轮美奂的世界夜景，港阔水深的天然良港,0.82,15.9,186,114.17509300074244,22.324424354303936
新加坡SEA海洋馆,,"80 Siloso Road, Sentosa, Singapore 098969",观赏色彩斑斓的珊瑚丛和奇异的海洋生物,0.72,59,186,,
小七孔风景区,,贵州省黔南州荔波县,山、水、林、洞、湖、瀑为一体的原始奇景,0.7,218,186,107.9302133859601,25.401317993202547
雅戈尔动物园,4A,浙江省宁波市鄞州区东钱湖镇梅湖村对面,野生风情，动物天堂,0.72,118.6,184,121.67944014874288,29.81147416440212
马岭河峡谷,,贵州省黔西南兴义城东北6公里,谷内群瀑飞流，翠竹倒挂，让人流连忘返,1.0,69,184,104.85783724276915,25.002543765436346
漓江四星级游船,,广西壮族自治区桂林市灵川县,桂林山水精华之所在,0.0,185,184,110.41812911350989,25.381008804926665
仙岛湖,3A,湖北省黄石市阳新县王英镇,没有一丝喧闹，置身其中，回归大自然,0.76,30,184,114.84006152170669,29.807749648498785
通灵大峡谷,4A,广西壮族自治区百色市靖西县湖润镇新灵村,巨型钟乳石高崖倒悬，古树老藤遮天蔽日,1.0,98.1,182,106.67577437923934,23.006547857517408
天子山,,河北承德市兴隆县挂兰峪镇二甸子村,一个纯天然少有人涉足的净地,0.0,40,182,117.68479244887001,40.339459932983964
普罗旺斯薰衣草庄园,,黑龙江哈尔滨香坊区东方红社区东北侧,薰衣草庄园,0.0,65,182,126.79204413625399,45.71044932235944
长影旧址博物馆,,吉林省长春朝阳区红旗街1118号,电影人的朝圣地，新中国电影艺术成就的殿堂,0.0,50,182,125.29874975611705,43.871688164900455
37度梦幻海,,山东省烟台市开发区黄河路365号37度梦幻海水乐园,享受水上世界的自由放松,0.0,1.9,182,121.19998019648669,37.58647831724939
山西王家大院,4A,山西省晋中市灵石县静升镇静升村,汉族传统民俗文化建筑艺术的瑰宝,0.82,3.8,182,111.87702673806322,36.90222202340433
芙蓉国粹,,四川省成都市锦江区华兴正街54号锦江剧场芙蓉国粹,感受古蜀文化川剧的魅力,0.0,80,182,104.08675737435509,30.665330939748007
月坨岛（月岛）,4A,河北省唐山市乐亭县西南渤海湾中的沙岛,沙丘松软，滩缓潮平，沙阜隆起，连绵起伏,0.86,102,182,118.93994305703049,39.35722889189613
木坑竹海,3A,安徽省黄山市黟县宏村木坑,卧虎藏龙拍摄地，恰如世外桃源般令人神往,0.7,15,182,117.98859334302392,29.995008819144832
库车王府,,新疆阿克苏地区库车县老城林基路街,有幸在王爷家做客，一睹王爷风采,0.7,45,182,82.92913088222667,41.72792886253672
滕王阁游轮,,江西省南昌市仿古街58号,领略南昌的“名城、名江、名楼、名景“,0.0,86.6,182,115.88869510955011,28.68662147776157
白鹿原影视城,,陕西省西安市蓝田前卫镇s107（关中环线）将军岭隧道西1公里处,远望关口、身在关中,0.0,14,182,109.28930536755045,34.08407029821061
鼓浪屿颠倒博物馆,,福建省厦门市思明区鼓浪屿漳州路60号（鼓浪屿音乐厅旁）,国内首家大型综合颠倒博物馆来厦门,0.0,24.8,182,118.07713711716302,24.44867949854019
崂山太清景区,,山东省青岛市崂山区崂山景区内东南部,坐落在宝珠山下，崂山东南部的风景区,0.0,158,182,120.61758463642437,36.129311617415254
五公祠,3A,海南省海口市琼山区流芳路2号,品味海南历史文化及中国书法之美,0.78,13.01,180,110.36848500629759,20.013031478777958
南昌3D错觉艺术馆,,江西省南昌市青山湖区高新大道8号大润发3楼,3D呈现惊人错觉视觉感受,0.0,28.8,180,115.97025255333352,28.66888846478548
龙鳞石海,4A,重庆市万盛区石林镇石鼓村境内,喀斯特地质公园类自然风景旅游区,0.0,72,180,106.92031482317127,28.84357220316317
六和塔,,浙江省杭州市西湖区之江路84号,既可欣赏古塔的雄姿，又能领略钱塘江的风光,0.74,18,180,120.13786793476392,30.202385955884413
白云山,5A,广东省广州市白云区广园中路白云山景区,南粤名山之一，有“羊城第一秀”之称,1.0,4.8,180,113.31393010805493,23.198119779335638
大宋东京梦华,,河南省开封市龙亭区龙亭西路5号,生动地再现北宋京都汴梁的盛世繁荣,0.8,266,180,114.34386925984691,34.81420923145642
大连铭湖国际观光牧场,4A,辽宁省瓦房店市炮台镇沈大高速炮台出口,国内首创新型科技农业观光旅游项目,0.0,42,180,121.77099004682036,39.48414124561911
燕塞湖,4A,河北省秦皇岛市山海关区小陈庄北,自然景观星罗棋布，蕴尽诗情画意,0.72,43,180,119.71489198109849,40.03285191714041
合肥海洋世界,,安徽省合肥市经济技术开发区繁华大道321号,与极地海洋动物进行亲密互动,0.0,115,180,117.22199712450778,31.788116316421277
神潭大峡谷,,山西省运城永济市永济电机厂南2公里处水峪口村,“梦幻水乡”“人间仙境”,0.0,45,180,110.43800818992376,34.840575371726466
苏州乐园海底世界,,江苏省苏州市高新区玉山路162号苏州乐园水上世界商业广场A区苏迪糖果乐园楼下,多功能大型现代都市水族馆,0.0,20,180,120.4394627925981,31.386417618690732
连州地下河,5A,广东省清远连州市东陂镇大洞村,洞中石笋、石柱、石花、石幔，诡谲奇特,0.76,130,178,112.30864488678486,24.99509479675723
北京海洋馆,4A,北京市海淀区高粱桥斜街乙18号,奇幻海洋之旅，在帝都感受大海的魅力,0.7,160,178,116.34693963177207,39.94972262974068
东方绿舟,4A,上海市青浦区沪青平公路6888号,全国首屈一指的青少年校外教育营地,0.7,44,178,121.02017563599946,31.107361709264083
杭州黄龙洞,,浙江省杭州市西湖区曙光路69号,以缘为主题，龙为主景，松篁交翠，山径幽深,0.0,12,178,120.14473009055462,30.269737458629262
森哒星生态度假公园,,贵州贵安新区黔中路与北斗湖之路交汇处云漫湖国际旅游休闲度假区内,真正的家庭型自然探索生态度假公园,0.0,50,178,106.58130052212559,26.41405057820491
太阳岛冰雪艺术馆,,黑龙江省哈尔滨市松北区太阳岛风景区内,冰雪艺术品室内展馆,0.0,80,178,126.6143244602102,45.79696258452855
少华山国家森林公园,4A,陕西省渭南华县莲花寺镇袁寨村,四季风光变幻无穷，人称“陕西的九寨沟”,0.7,53,178,109.8453614844834,34.510541720091524
玉华洞,4A,福建省三明市将乐县古墉镇梅花村,洞内岩石光洁如玉，光华四射，遍布幽奥,0.82,95,178,117.51888507822244,26.710785051121977
阳朔大榕树,,广西壮族自治区桂林市阳朔县穿岩村大榕树景区,千年古树，一棵树就是一片森林,0.0,12.07,178,110.49343328314902,24.737779159272872
西岭雪山,4A,四川省成都市大邑县内,壮观旖旎、神秘奇特,0.74,78,176,103.38845160801436,30.614941412606022
棕榈谷水城,,广东省东莞市东城区迎宾路8号,享受刺激有趣的水上活动,0.7,62,176,113.89829034022712,22.967661075544942
南京汤山一号温泉,,江苏省南京市江宁区汤山镇温泉路5号,享受特色温泉“冷雾温泉”，感受冰凉体验,0.0,118,176,119.06984466648031,32.05825845385744
五洩,4A,浙江省绍兴市五洩镇诸暨五泄风景区,景致美不胜收，言不胜表,0.86,65,176,120.05597957259282,29.711892275688108
石家庄动物园海洋馆,,河北省鹿泉市获鹿镇杜家庄村西北侧,诠释对海的眷恋,0.0,54,176,114.32867695536717,38.09388623529066
永嘉书院,,浙江省温州市永嘉县沙头镇珠岸村永嘉书院,文化、休闲、观光旅游综合项目基地,0.0,25,176,120.70488518282305,28.273803894296652
哈尔滨松花江观光索道,,黑龙江省哈尔滨道里区通江街218号,"索道之处,风光无限,尽揽松花江风光",0.0,47.3,176,126.61723615492751,45.78436973849996
昆明西山龙门景区,4A,云南省昆明市西山区西山公路,瞻仰文化碑林，看满清八旗遗迹,0.74,73.9,176,102.62574542895143,24.989910553185073
滨海栈道,,广东省深圳市盐田区港西面滨海栈道,世界第一长“海滨玉带”,0.0,58,176,114.27848287567366,22.606981337588515
天堂寨,5A,安徽省金寨县天堂寨风景区,感受大自然的神气伟丽，品味乡野的淳朴善良,1.0,131,176,115.77931490356178,31.47909281966015
七星寨,,湖北省恩施市屯堡乡板桥镇,包括多种地质景观，是清江大断裂景观精华,0.0,190,176,109.2082072524999,30.42204840002959
沙家浜,5A,江苏省苏州市常熟市阳澄湖畔,穿越历史的气质美,0.72,29.5,176,120.8314859651577,31.669446047798115
鼎湖山,4A,广东省肇庆市鼎湖区上山路坑口镇,风光秀丽，具有浓郁江南诗情画意,0.86,62,176,112.56486964617616,23.16564641490392
港澳通行证团队澳门送关服务,,澳门特别行政区,24小时贴心服务，方便快捷，送游客出关,0.0,1,176,113.55751910182492,22.204117988443336
天目湖水世界,,江苏省常州溧阳市环湖东路1号,主题型水上乐园,0.0,130,174,119.44319121609327,31.300236005551376
锡惠公园,,江苏省无锡市北塘区惠山直街2号（近惠山东麓观泉街巷口）,展现了南朝以来各个朝代的历史文化古迹,0.9199999999999999,57,174,120.27812154183393,31.58588013471458
东莞龙凤山庄影视渡假村,4A,广东省东莞市凤岗镇官井头大龙管理区龙凤山庄路,甜蜜浪漫，梦幻伊甸园,0.0,45,174,114.1941253097455,22.725486444792868
鸡鸣岛,,山东省威海市荣成市港西镇,《爸爸去哪儿》第四站山东站的拍摄地点,0.0,50,174,122.43454512201313,37.38955615145959
中国西部大峡谷,4A,云南省昭通市水富县金沙江畔,沉醉在山顶的云雾中，沐浴在升腾的水雾里,0.0,78,174,104.22883253660663,28.510929836358752
香港天际100观景台,,香港特别行政区油尖旺区柯士甸道九龙西1号环球贸易广场100f,海拔393米高处，360度鸟瞰香港景色,0.0,37,174,114.17213205912145,22.30629706150634
河源巴伐利亚庄园,,河源市源城区万洞旅游区巴伐利亚庄园,健康旅游+乐活养老,0.0,40,174,114.6269368093984,23.63784470721064
夫子庙秦淮河游船,,江苏省南京市秦淮区,中国第一历史文化名河,0.8400000000000001,58,174,118.81722069708675,32.0079691361432
天堂寨,4A,湖北省黄冈市罗田县,不是天堂，胜似天堂,0.9,90,174,115.48102224121077,30.932372750756645
集发生态农业观光园,4A,河北省秦皇岛市北戴河海北路中段,看、玩、吃、购、娱一条龙的生态农业观光园,0.72,33.5,174,119.42362684073036,39.828751383299156
四川广播电视塔,,四川省成都成华市猛追湾街168号,西部第一个高塔,0.0,29.9,174,104.10176165832732,30.667367663989992
威海天沐温泉,,山东省威海市文登市张家产镇天沐温泉度假村内,住亲水客房，吸清新空气,0.0,79,172,122.08058618998452,37.08764020008007
大别山地质公园彩虹瀑布,,安徽省安庆市岳西县黄尾镇黄尾村,原生态猴河峡谷，数千米的奇石走廊,0.0,85,172,116.32995621030886,31.139786345327227
三坊七巷,5A,福建省福州市鼓楼区三坊七巷,感受浓厚的闽越古城民居特色,1.0,86,172,119.2906329396076,26.097871106548066
敦煌旅游集散中心,,甘肃省酒泉市敦煌市鸣山北路373号,提供更专业、更人性化的细致旅游服务,0.0,66,172,94.66885879873305,40.1443528529387
山西通天峡景区,,山西省长治市平顺县虹梯关乡梯后村通天峡景区,奇峰林立、巍峨厚重；太极石阵、造化天成,0.0,51,172,113.61917640725561,36.22169228465691
沈万三故居,,江苏省苏州市昆山市镇周庄欢乐世界旁,重现历史原貌，精心设计、修建，独具特色,0.0,105,172,120.86433341092311,31.120899798656023
上海外滩星空艺术馆,,上海黄浦区中山东二路531号（外滩十六铺观光码头商城负2楼）,全球首家创新的奇妙时尚艺术馆,0.0,47,172,121.50134946465478,31.234154082407404
观澜山水田园水上乐园,,广东省深圳市宝安区环观南路,提供适合不同年龄层次游客的游乐项目,0.0,80,172,114.10237652348016,22.748773525774048
石家庄海洋公园,,河北省石家庄市海悦天地西侧负一层,大型室内海洋馆，走进生态海底世界,0.0,87.5,172,114.48110515238673,38.041158742631204
锦里沟,4A,湖北省武汉市黄陂区蔡店乡道士冲村,看樱花桃花次第盛放，感受土苗文化风情,0.0,57,170,114.30392080534324,31.29293404795612
基诺山,,云南省西双版纳景洪市基诺乡,感受原始、纯朴的民俗风情,0.8400000000000001,98,170,100.92731774533762,22.111413013255074
音乐台,,江苏省南京市玄武区灵谷寺路,一座纪念性建筑，建筑布局为我国首见,0.7,89,170,118.87040892634431,32.04994136110537
黄河风景名胜区,4A,河南省郑州市江山路黄河南1号,黄河之水天上来，奔流到海不复回,0.82,54,170,113.62609812339657,34.840590347213464
翠华山,4A,陕西省西安市长安太乙宫镇翠华山景区,太乙真人修炼地，李世民避暑消夏,0.7,9,170,108.94422005634945,34.27470569604047
椰田古寨,,海南省陵水县英州镇椰田古寨景区,展示苗家文化风情的窗口,0.0,10,170,109.86567852138164,18.43228966108177
兰州极地海洋世界,,甘肃省兰州市七里河区建西东路303号,突破传统水族馆的规划理念，游览游乐并行,0.0,90,170,103.77348493366497,36.06849841445478
红色娘子军纪念园,3A,海南省琼海市嘉积镇万石坡东线高速公路官塘入口处,领略中国现代革命史上的娘子军风采,0.74,10,170,110.48377204242631,19.212035645865743
重庆杜莎夫人蜡像馆,,重庆市南岸区南滨路133号附9号（长嘉汇购物公园）,与心爱的偶像做近距离的接触,0.0,30,170,106.59125760000519,29.584546750798165
关山草原,4A,陕西省宝鸡市陇县南沟村北800米,地势广阔，水肥草美，牧马成群,0.72,55,168,106.97304124669034,35.02583211420266
东京迪士尼乐园,,"日本东京都千叶县浦安市舞滨;1-1 Maihama, Urayasu, Chiba Prefecture",亚洲第一座迪士尼主题乐园,0.0,12,168,118.85212595324899,31.95598308506751
天波杨府,,河南省开封市龙亭北路14号,天波杨府布局精巧，极具江南园林风格,0.9,52.1,168,114.35290262005525,34.81758471794004
南通水上乐园,,江苏省南通市港闸区北大街1号,以“动感、奇妙、梦幻”三重游乐个性为核心,0.0,79,168,120.86584840945383,32.045260832089525
万峰林,4A,贵州省黔西南州兴义市万峰林街道,上万座锥状的山峰一座挨一座，非常壮观,0.7,114,166,104.92974668621169,25.00016413990121
国艺影视城,,广东佛山市南海区西樵山国艺影视城,首家集影视、旅游、表演、于一体的综合项目,0.0,56,166,112.98224482744229,22.91289721000236
黄沙古渡原生态旅游区,4A,宁夏银川市兴庆区月牙湖乡,大漠黄河，塞北江南,0.72,171,166,106.60906189186748,38.613468511719695
山西晋祠博物馆,4A,山西省太原市晋源区晋祠镇,古代祭祀建筑，碑刻等为一体的文化遗产,0.76,3.5,166,112.44916389803221,37.70517912594844
中央电视塔,4A,北京市海淀区西三环中路11号,登高望远，俯瞰北京城,0.72,81.2,166,116.31292927492677,39.9247528667126
人间花海,,北京市密云县车道峪村,一场紫色的邂逅，花海如烟的人间美景,0.0,50,166,117.20874509884482,40.58641578856989
四面佛,,Th Ratchadamri & Th Ploenchit交叉路口,四面佛在泰国被称为有求必应佛,0.0,50,166,,
隐贤山庄,,广东省东莞市常平镇隐贤山庄大道8号,心目中的世外桃源,0.7,51.01,166,114.03259952911682,22.982669901817687
千岛湖金峰峡谷漂流,,浙江省杭州市淳安县金峰乡朱峰源,融时光隧道穿越和高落差激流漂流于一体,0.0,42.5,166,118.92424923878019,29.684438845931027
蓝月山谷石卡雪山景区,4A,云南省迪庆州香格里县拉石卡雪山,特有原生态藏族自然村，包含藏地独特景观,0.0,132,166,99.717402020982,27.84249199395201
玉圭园环球名胜凯旋王国主题乐园,,广西桂林雁山区良丰路（环城高速公路口）,极其丰富的游玩项目，体验设施,0.0,134,166,110.30310954094857,25.108747159928182
《又见五台山》大型实景剧,,山西省忻州五台县五台山金岗库乡大甘河村,一天、一年、一生、一念,0.0,188,164,113.6994401581824,38.88837269322081
仙人洞自然风景区,,广东省茂名高州市深镇境内,有杜鹃林、千亩竹海、原始森林和天然瀑布群,0.72,38.8,164,110.97560541085699,22.035521645118745
岱庙,,山东省泰安市泰山区红门路泰山,中国四大古建筑群之一,0.8400000000000001,8,164,117.13497361114385,36.213299496877696
青藏高原野生动物园,4A,青海省西宁市城西区行知路9号,车行和步行参观，与高原动物零距离接触,0.0,15,164,101.74058520279497,36.63287145279164
汉阳陵博物馆,4A,陕西省西安市咸阳国际机场专用公路东段,“事死如事生”丧葬观念空前盛行的真实体现,0.0,53,164,108.77370410508969,34.44916621470407
大乳山,4A,山东省威海乳山市海阳所镇大乳山滨海旅游度假区,母爱温情福地养生,0.72,55,164,121.62668160006818,36.819039366333286
桂山,4A,广东省河源市源城区东源县新港镇港中路17号,素有植物王国、动物乐园、旅游天堂之称,0.82,35,164,114.67599237497659,23.732334298995454
荷塘月色湿地公园,3A,江苏省苏州市相城区太阳路西4575号,集生态旅游、休闲观光、科普教育于一体,0.7,15,164,120.58984975383785,31.414998792644553
新加坡日间动物园,,80 Mandai Lake Road，Singapore 729826,感受这热带雨林中野生动物生生不息的生命力,1.0,10,164,,
欧乐堡梦幻世界,,山东省烟台蓬莱市海市路三仙山大酒店对面路南,欧洲风情的大型主题乐园,0.0,139,164,120.79314344125773,37.82566375091438
印象丽江,,云南省丽江市玉龙县玉龙雪山甘海子蓝月谷剧场,洗涤灵魂的演出盛宴,0.0,123,164,100.267678149031,27.111546178492983
海立方海洋公园,,湖南省长沙市雨花区圭塘河与木莲东路交叉口海立方海洋公园,海底剧场和12个海洋互动舞台,0.0,29.9,164,113.0411775028453,28.137638896599146
明仕田园风景区,,广西崇左市大新县堪圩乡明仕村,边漂流边欣赏溪河美景,0.74,110,162,106.9243415737371,22.713062895699505
南宫民族养生温泉,,北京市丰台区王佐中心镇南宫村地热博览园内,适合多年龄层游客，休闲放松的好去处,0.0,170,162,116.16254711602829,39.80988349634024
南京珍珠泉水上世界,,江苏省南京市浦口区珍珠街178号,高品质天然泉水水上乐园,0.0,88,162,118.6661093397703,32.125785509067256
南湾湖,4A,河南省信阳市南湖大街188号,中原第一湖，中原千岛湖,0.8800000000000001,65,162,114.01501819446776,32.13999955801028
大觉山漂流,,江西省抚州市资溪县大觉山,给人以美的享受、美的情怀 、美的想象,0.0,135,162,117.03576739532252,27.74522853557372
灵隐寺,,浙江省杭州市法云弄1号,江南禅宗“五山”之一,0.0,4,162,120.10747772037806,30.247419035959727
四洞沟风景区,,贵州省遵义赤水市赤水风景名胜区内,万竹之园，小家碧玉，没有败笔的景区,0.72,20,162,105.92051307621384,28.493333651298947
黄山九龙瀑,4A,安徽省黄山市黄山区汤口镇苦竹溪村,五彩潭池，一折一瀑，一瀑一潭,0.72,35,162,118.18789858711085,30.077097762732027
苏州太湖国家湿地公园,4A,江苏省苏州市高新区太湖大道镇湖绣品街到底,品味湿地生态，畅享休闲假期,0.0,29.1,162,120.35139156126363,31.333315976007462
佛影峡生态旅游区,3A,重庆市巴南区跳石镇洞口草铺子,勇士漂流、溯溪探险让你感受中国都市第一漂,0.0,59,160,106.70725068540011,29.251443054089663
南通探险王国,,江苏省南通市港闸区北大街1号,以室内高科技游乐项目为主,0.0,68,160,120.86584840945383,32.045260832089525
关门山国家森林公园,4A,辽宁省本溪市本溪县山城子镇本溪水洞南13公里,断落处溅起朵朵水花，泻入青潭,0.86,82,160,124.13339216902936,41.24037850125753
八大处公园,4A,北京市石景山区八达处路3号,有八座古寺而得名，香山外另一爬山绝佳地,0.72,10,160,116.19264083749412,39.96065768734736
广州街香港街影视拍摄基地,,浙江省金华东阳市横店镇万盛南街58号,再现1840年前后的羊城旧貌和香江风韵,0.0,110,160,120.32346727658313,29.15761975325314
双龙洞,4A,浙江省金华市婺城区罗店镇金华山双龙风景区内,景观幻化多变，宛若置身“水晶龙宫”,0.72,79.1,158,119.63508587237415,29.202491773215318
汕头方特欢乐世界·蓝水星,4A,广东省汕头市龙湖区泰星庄泰星路12号,方特成就欢乐梦想,0.0,85,158,116.76934906867803,23.348025872755855
太行山大峡谷,4A,山西省壶关县桥上乡,奇峰涧壑，林海悬崖，四时之景，巧夺天工,1.0,135,158,113.58397422626987,35.92344797125298
厦门方特东方神画,,福建省厦门市同安区G15(沈海高速),体验文化盛宴，尽享东方神韵,0.0,115,158,118.1996650858865,24.69256095174536
怀柔青龙峡,4A,北京市怀柔区怀北镇大水峪村北500米,集青山、绿水、古长城于一体的自然风景区,0.7,27,158,116.70652234436115,40.45664338814432
神农山,5A,河南省沁阳市西北23公里处的太行山南麓,炎帝辨五谷、尝百草、设坛祭天之地,0.72,39,158,112.84105635296663,35.260224225199025
古城·尚书第,,福建省三明市泰宁县城内胜利二街福堂巷,浓缩了古代建筑的生活场景，见证了朝代更迭,0.82,17,158,117.12565958885105,26.865476881883197
千岛湖王子谷漂流,,浙江省杭州市淳安县千岛湖富文乡青田村,曲折跌宕的弯道，体验激流险滩的湿身之旅,0.0,75,158,119.15867718360646,29.60076306591475
石台牯牛降,4A,安徽省池州市石台县大演乡,以雄、奇、险著称，古称“西黄山”,0.0,83.1,158,117.50199693257713,30.159657133093894
曲江寒窑遗址公园,,陕西省西安市曲江新区寒窑路18号曲江寒窑遗址公园,王宝钏薛平贵爱情见证，情侣推荐,0.0,43.1,158,108.99653816065772,34.20393870892032
兴城古城,4A,辽宁省葫芦岛市兴城市延辉街南端,五百年前留下来的一份珍贵的历史遗产,0.8400000000000001,89,156,120.71977448964559,40.62732124193862
阿尔卑斯山滑雪场,,广东省深圳市南山区世界之窗景区,体会滑雪快感，嬉雪、观雪的绝佳去处,0.72,45,156,114.00694386357385,22.53863071439309
望天湖旅游度假区,,广东省揭阳市蓝城区白塔镇广和草山望天湖,以生态农业为主题的特色旅游地,0.0,45,156,116.16061283590717,23.57579445557722
遮阳山,4A,甘肃省定西市漳县草滩乡叭嘛村附近,三醉石、题诗崖、仙人祠、青羊洞,0.96,20,156,104.5088459899225,34.599565592958506
热高乐园巴厘岛水世界,,辽宁省抚顺市望花区高湾经济开发区丰远路1号,亚洲仅有的贯通室内外的漂流河,0.0,300,156,123.77302377418701,41.87860630066019
羊卓雍措,,西藏自治区山南地区浪卡子县,层层盘山路后水天相连，天水一色的震撼,0.0,138,156,90.6382682128511,28.76127322743137
云梦仙境,3A,北京市怀柔区琉璃庙镇东峪村云梦仙境自然风景区,春野花，夏翠谷，秋红叶,0.0,38.6,156,116.70008559461925,40.62487046159238
杭州湾海皮岛,,浙江省宁波慈溪市杭州湾新区世纪城（滨海二路928号）,大型室内四季恒温水世界,0.0,90,156,121.24143382834694,30.336192306782664
东方明珠空中旋转餐厅,,上海市浦东新区浦东世纪大道1号东方明珠广播电视塔内,全方位360度尽收上海林立高楼之美景,0.0,169,156,121.50625059256805,31.24540977690472
惠州平安峡漂流,,广东省惠州市博罗县柏塘镇平安林场,漂流于跌岩起伏的溪流中，全方位的感官刺激,0.0,9.9,156,114.37504162654669,23.401177778003888
金珠花海景区,,吉林省吉林市龙潭区金珠镇农林村,度假、休闲、放松的绝佳去处,0.0,32,156,126.61654795390815,44.02103091503569
日本Suica卡,,日本>东京,一个多功能的卡，兼有电子钱包的功能,0.0,130.41,156,99.77874898872787,32.7983219757217
武功山大峡谷漂流,,江西吉安安福县泰山乡武功山大峡谷景区上码头,位于华东地区高大上又充满趣味的漂流,0.0,54,154,114.28358240097764,27.446991774515634
石林冰雪海洋世界,,云南省昆明市石林彝族自治县石林大道冰雪海洋世界,开启奇妙海洋之旅,0.0,138,154,103.31435240665697,24.807536687571588
梨花溪,,四川省成都市新津县永商镇梨园村附近,“南行看梨花”,0.7,45,154,103.8066763226371,30.404376468432684
安家沟,4A,河北省张家口市桥西区东窑子镇石匠窑村,集休闲度假、餐饮娱乐为一体的旅游景区,0.7,25,154,114.90265861771778,40.85649580112687
土家风情园,4A,湖南省张家界市永定区境内,人文景观与自然景观相融合,0.78,80,154,110.5010072966471,29.0885388124704
万绿湖镜花缘旅游区,4A,广东省河源市东源县新港镇港中路17号（近万绿湖码头）,一片如真似幻、美景如画的世外桃源景象,0.78,32.7,154,114.6386024625608,23.782195691393618
五指山大峡谷漂流,,海南省五指山市五指山景区内,感受大地欢歌，生命的激情,1.0,148,154,109.51775006369164,18.831305749013495
四季悦温泉世界,,江苏省苏州市高新区通安镇自然生态村树山村,体味在严冬里嬉戏水世界的畅快,0.0,63,154,120.45988811024992,31.36955752636983
慕田峪长城箱式索道,,北京市怀柔区渤海镇慕田峪村,万里长城第一缆车,0.0,38,154,116.56650873757421,40.433091768304315
北海公园,4A,北京市西城区文津街1号（故宫北）,让我们荡起双桨，小船儿推开波浪,0.76,1,152,116.39635000019543,39.928756075950055
美人谷,,湖北省荆门市京山县绿林镇美人谷,远山、绿树倒映其间，瀑布、野藤相映成景,0.7,36,152,113.07150125076454,31.345706380659422
鹅鼻嘴公园,,江苏省无锡江阴市黄山路288号,形如鹅鹅伸鼻江中而得名,0.7,20.1,152,120.30889778055507,31.90466718080886
紫谷伊甸园,,北京市丰台区永定河堤农场路9号,春风在花叶上留恋，蝴蝶在花间起舞，花开花落让您与大自然拥有一场真正的邂逅,0.0,50,152,116.24997292805716,39.83616024267463
清远新银盏温泉度假村,,广东省清远市清城区广清高速银盏收费站出口处,水质一流，空气清新，素有天南第一水的美誉,0.0,95,152,113.13429780938655,23.555744555733177
格兰岛,,泰国芭堤雅,享有“东方夏威夷”之喻,0.0,50,152,,
新加坡海洋生物园,,新加坡圣淘沙岛,与各种壮观的海洋巨无霸亲密接触,0.0,107,152,105.96171430208666,26.258323531902303
中华回乡文化园,4A,银川南 宁夏银川市永宁县城西高速路口,领略回族历史宗教风俗文化的多姿多彩,0.0,28.9,152,106.10904802496658,38.295049444355726
腾龙洞,4A,湖北省恩施州利川市腾龙大道1号,旅游、疗养、探险、地质考察的理想之地,0.96,169,152,108.96600091072769,30.305586031290645
红石林,4A,湖南省湘西州古丈县红石林镇红石林景区,充满野趣和粗犷阳刚之美,0.7,105,152,109.84153750672466,28.762780327169356
三孔,5A,山东省曲阜市明故城,孔府、孔庙、孔林，儒家圣地,0.86,50,150,117.03178985127641,35.61576056625757
龙颈河漂流,,广西省桂林市阳朔县大源林场,感受“大浪扑面，浪遏飞舟”的惊险与刺激,0.7,124.1,150,110.59276979734267,24.95409312881244
国信南山温泉,,吉林省长春长清公路16公里处,真正意义上的“天然氧吧”,0.0,160,150,125.5331818808363,43.69117471008919
千湖国家湿地公园,,陕西省宝鸡市千阳县大桥东南,陕西省第一个国家湿地公园,0.0,27,150,107.40482478315215,34.720557055938414
苏州上方山国家森林公园,3A,江苏省苏州市虎丘区横越路47号,以吴越遗迹和江南水乡风光取胜的天然公园,0.0,38,150,120.59257581102658,31.261538543836977
净月潭,5A,吉林省长春市净月经济开发区净月大街5840号,禅，净，修，净月潭，北普陀寺,1.0,26.8,150,125.45983449035302,43.80696775601087
宁波九龙湖,4A,浙江省宁波市镇海区九龙湖镇环湖路168号,东尽观沧海，往事一慨然,0.72,60,150,121.50820698503068,29.981489009237553
天山神秘大峡谷,,新疆阿克苏地区库车县北部72公里处217国道旁,山体千姿百态，峡谷曲径通幽，别有洞天,0.78,40,150,83.24596889492061,42.24303528436853
白马涧,4A,江苏省苏州市高新区枫桥街道华山路,布拉格黄金巷，诗情画意的童话世界,0.0,47.9,150,120.54348580170404,31.318361349869573
九江民生大千世界游乐园,,江西九江长江二桥、八里湖大桥桥头·赛湖凤凰岛,寓教于乐，旅游体育休闲度假胜地,0.0,108,150,115.90446128751664,29.667435539385707
漳州土楼群,,福建省漳州市漳浦县,以造型奇异，风格独特而闻名于世,0.7,84.9,150,117.69145555573833,24.134610348851826
宝华山国家森林公园,4A,江苏省镇江句容市宝华镇杨柳泉路,层峦叠嶂、逶迤环绕、形似莲花,0.78,45,150,119.1000168782884,32.15027986862007
天津龙达温泉生态城,,天津市滨海新区塘沽新城镇天津大道,亚洲大型热带雨林生态温泉,0.0,108,150,117.5107881653149,38.98230628054397
天子山瀑布,,广东省清远市清城区清新县飞来峡镇西坑村,一座天然氧库，沁人心脾，令人心旷神怡,0.74,35,148,113.27953526568308,23.82425834472468
西安临潼悦椿温泉,,陕西省西安市临潼区悦椿东路8号,点亮了临潼，惊艳了曲江,0.0,128,148,109.18678247295124,34.36805339780942
南五台,,陕西省西安市长安区终南山景区内,群山起伏，自古为佛教名山与皇家避暑之地,0.0,40,148,109.03936067536937,33.935767781299894
Do都城,,浙江省杭州市江干区新业路331-399号钱江新城市民中心K楼1-2楼,小细节见证大成长,0.0,90,148,120.21660261610245,30.253997187318284
平谷桃花海,,北京市平谷区挂甲峪村,京城四月，桃花纷飞,0.0,23.5,148,117.11225480544026,40.27248718482897
盘锦红海湿地温泉乐园,,辽宁省盘锦市大洼区田家天沐街南,盘锦市“首家园林式露天温泉”,0.0,52,148,122.03167203833841,41.177495704358215
殷墟,5A,河南省安阳市西北郊小屯村,商朝晚期都城遗址，甲骨文发掘地,0.9400000000000001,78.6,148,114.35180650767198,36.1102667221811
西冲情人岛,,广东省深圳市南澳大鹏新区南澳西冲,深圳的世外桃源,0.0,4.5,146,114.47501021364951,22.562482956305423
金犸象·魔幻冰雪王国,,河南省郑州市郑开大道以北，杉杉奥特莱斯东门,大型室内冰雪项目,0.0,80,146,113.74430325650405,34.78891187564683
鱼凫国都温泉,,四川省成都市温江区温泉大道四段1号,国内外少见的多微复合珍稀医热疗矿泉,0.0,29.9,146,103.8285095967321,30.653558974521175
呈坎,5A,安徽省黄山市徽州区呈坎镇,集自然八卦和人文八卦相结合的千年古村,0.72,95,146,118.28580663927906,29.920885187141955
泉城欧乐堡梦幻世界,4A,山东省德州市齐河县黄河国际生态城旅游路07号,畅游梦幻世界，感受欧洲风情,0.0,200,146,116.84681183783798,36.74916412507776
上清溪,,福建省三明市泰宁县,九十九曲，八十八滩，七十七弯，六十六潭,0.86,49,146,117.12565958885105,26.865476881883197
张掖大佛寺,4A,甘肃张掖甘州区民主西街大佛寺巷,殿内塑有室内泥塑卧佛,1.0,9.8,146,100.46152849532605,38.93523540733797
上清溪,,福建省三明市泰宁县,九十九曲，八十八滩，七十七弯，六十六潭,0.86,49,146,117.12565958885105,26.865476881883197
泗洪洪泽湖湿地景区,4A,江苏省宿迁市泗洪县洪泽湖湿地公园,淡水湿地景区,0.0,50,146,118.33544774285471,33.25293799845256
宁波科学探索中心,,宁波市江东区宁穿路1800号,激发科学兴趣、启迪科学观念,0.0,28,146,121.62378151575304,29.865054804100907
万年冰洞,,山西省忻州市宁武县东寨镇春景洼乡麻地沟村,一冰一火，奇特冰洞,0.0,106,146,112.11265832970618,38.813551082272284
金东尼人妖秀,,"252/5 Soi Yoocharern . Rachadapisek Rd,Huaykwang Bangkok 10320",带你观看曼谷有名的人妖秀,0.0,38,144,,
金碧温泉,,保山市隆阳区金鸡乡营门口,富有情趣的世外桃源,0.0,25,144,99.25395529322721,25.163231036470975
上海乐高探索中心,,上海市普陀区大渡河路上海长风公园对面景畔广场4楼,难忘刺激的乐高工厂之旅,0.0,137.9,144,121.40747167184283,31.230997817318066
五指山景区,3A,海南省五指山市水满乡五指山热带雨林风景区,海南第一高山，是海南岛的象征,0.0,32,144,109.68240834500934,18.871390348885797
紫烟薰衣草庄园,,辽宁省沈阳市沈北新区马刚乡马泉沟村,薰衣草主题公园，现代化休闲度假庄园,0.0,50,144,123.66120932481655,42.03073003525129
齐云山,4A,安徽省黄山市休宁县齐云山镇岩前街018号,道教景观、丹霞地貌、摩崖石刻、山水田园,0.72,58.1,144,118.05552298380304,29.823222407899976
时光之翼,,新加坡圣淘沙岛,给你一个前所未有的全新梦幻世界,0.0,39,144,105.96171430208666,26.258323531902303
五龙源极限漂流,,江西省上饶市婺源县段莘乡段莘村,全程尽享天然山溪水，绝对的生态峡谷漂流,0.0,148,144,118.02629713236784,29.477483181535156
巽寮湾,4A,广东省惠州市惠东县巽寮海湾风景区,海天相接，远山淡云，浑然一体,0.86,75,142,114.76781685066757,22.684798074348738
